CCN,ADDRESS LINE 1,CITY,STATE,ZIP CODE,lat,lon,lat_google,lon_google,updated_by_google
058283,18527 ROSCOE BLVD,NORTHRIDGE,CA,91324,34.2210038,-118.5183004,,,False
037439,2200 E CAMELBACK RD,PHOENIX,AZ,85016,33.5099821,-112.033702,,,False
397087,20 SHERATON DR,ALTOONA,PA,16601,40.4582765,-78.41011329999999,40.4582765,-78.41011329999999,True
297099,6325 S RAINBOW BLVD,LAS VEGAS,NV,89118,36.1441557,-115.242824,,,False
058156,1126 N GRAND AVE,COVINA,CA,91724,34.1040638,-117.872679,,,False
167014,1524 SYCAMORE ST,IOWA CITY,IA,52240,41.6435614,-91.5114973,,,False
679301,13510 WINDCHASE CT,HOUSTON,TX,77082,29.7309694,-95.6293047,29.7309694,-95.6293047,True
397012A,240 N RADNOR CHESTER RD,RADNOR,PA,19087,40.0422,-75.3609147,,,False
058042,5751 W ADAMS BLVD,LOS ANGELES,CA,90016,34.0326484,-118.3687727,,,False
058210,3939 ATLANTIC AVE 202,LONG BEACH,CA,90807,33.830115,-118.1853225,33.830115,-118.1853225,True
058100,13363 SATICOY ST,N HOLLYWOOD,CA,91605,34.208619,-118.4241259,,,False
058244,3055 WILSHIRE BLVD,LOS ANGELES,CA,90010,34.0618946,-118.2880976,,,False
077232,305 BOSTON AVE,STRATFORD,CT,06614,41.1927989,-73.1479692,,,False
058148,4375E LOWELL ST I,ONTARIO,CA,91761,34.0536057,-117.5563555,34.0536057,-117.5563555,True
058198,19608 CAMINO DE ROSA,WALNUT,CA,91789,34.0048724,-117.870231,,,False
227067A,434 ROUTE 134,SOUTH DENNIS,MA,02660,41.6907781,-70.1519009,,,False
227465A,88 MASONIC HOME RD,CHARLTON,MA,01507,42.140265,-71.9802348,,,False
227443A,267 AMHERST RD,SUNDERLAND,MA,01375,42.4522944,-72.5644322,,,False
058236,20350 VENTURA BLVD,WOODLAND HILLS,CA,91364,34.1684473,-118.603574,,,False
247219,1299 ARCADE ST,SAINT PAUL,MN,55106,44.9603396,-93.0660119,,,False
058180,22041 CLARENDON ST,WOODLAND HILLS,CA,91367,34.1697248,-118.6068135,,,False
267002,1300 E 104TH ST,KANSAS CITY,MO,64131,38.93901,-94.5758494,,,False
058447,18645 SHERMAN WAY,RESEDA,CA,91335,34.2009777,-118.5399596,,,False
058253,801 S GARFIELD AVE,ALHAMBRA,CA,91801,34.087195,-118.123149,,,False
058262,9029 RESEDA BLVD,NORTHRIDGE,CA,91324,34.2344685,-118.536422,,,False
058217,1109 W SAN BERNARDINO RD,COVINA,CA,91722,34.0893362,-117.9031972,,,False
059030,101 SPRING ST,CLAREMONT,CA,91711,34.093018,-117.716755,,,False
058255,3452 E FOOTHILL BLVD,PASADENA,CA,91107,34.1500445,-118.0787029,,,False
297091,6270 MCLEOD DR 100,LAS VEGAS,NV,89120,36.0759629,-115.1090936,36.0759629,-115.1090936,True
467025,1492 E RIDGELINE DR,SOUTH OGDEN,UT,84405,41.1554821,-111.9415745,41.1554821,-111.9415745,True
277032,2673 PALMER ST,MISSOULA,MT,59808,46.886944,-114.028828,,,False
237008,6465 MILLENNIUM,LANSING,MI,48917,42.7254225,-84.64388939999999,42.7254225,-84.64388939999999,True
207054,19 MARSHALL AVE,CARIBOU,ME,04736,46.8476345,-68.0176671,,,False
227011,30 CAPITAL DR,WEST SPRINGFIELD,MA,01089,42.1380952,-72.6235183,,,False
058135,4929 WILSHIRE BLVD,LOS ANGELES,CA,90010,34.0620383,-118.3219022,,,False
058184,11731 STERLING AVE,RIVERSIDE,CA,92503,33.894844,-117.4869147,,,False
167056A,1707 21ST ST,ELDORA,IA,50627,42.3575474,-93.1091911,,,False
058294,1170 DURFEE AVE,SOUTH EL MONTE,CA,91733,34.0359694,-118.0399011,,,False
227433,265 BENTON DRIVE # 201,EAST LONGMEADOW,MA,01028,42.042734,-72.52915949999999,42.042734,-72.52915949999999,True
077041,1 NORTHWESTERN DR,BLOOMFIELD,CT,06002,41.8158253,-72.725605,41.8158253,-72.725605,True
058250,2626 FOOTHILL BLVD,LA CRESCENTA,CA,91214,34.2215037,-118.2358621,,,False
077009,866 BOSTON POST RD,WESTBROOK,CT,06498,41.281702,-72.441802,41.281702,-72.441802,True
227476,795 WORCESTER ST,SPRINGFIELD,MA,01151,42.1593899,-72.5127563,,,False
058215,8616 LA TIJERA BLVD,LOS ANGELES,CA,90045,33.9592031,-118.3915692,,,False
147740,628 EXECUTIVE DR,WILLOWBROOK,IL,60527,41.7499645,-87.9387761,,,False
058087,11240 MAGNOLIA BLVD,NORTH HOLLYWOOD,CA,91601,34.1646852,-118.3759692,,,False
058149,4647 LONG BEACH BLVD,LONG BEACH,CA,90805,33.8418867,-118.1921524,,,False
157551,401 W EADS PKWY,LAWRENCEBURG,IN,47025,39.0957186,-84.8636277,,,False
057786,44335 LOWTREE AVE,LANCASTER,CA,93534,34.688754,-118.154047,,,False
679375,8700 COMMERCE PARK DR,HOUSTON,TX,77036,29.6871096,-95.5352947,,,False
237495,1681 WOODBRIDGE PARK AVE,LAPEER,MI,48446,43.0654,-83.3313465,43.0654,-83.3313465,True
058085,12440 FIRESTONE BLVD,NORWALK,CA,90650,33.9046406,-118.0686362,,,False
058075,1476 W NINTH STREET,UPLAND,CA,91786,34.0950567,-117.677349,34.0950567,-117.677349,True
247019,901 WILLMAR AVE SE,WILLMAR,MN,56201,45.110636,-95.031734,,,False
237516,42000 KOPPERNICK RD,CANTON,MI,48187,42.3410453,-83.4548471,,,False
058248,1100 N VENTURA RD,OXNARD,CA,93030,34.2133043,-119.1945058,,,False
377180,2503 SE WASHINGTON BLVD,BARTLESVILLE,OK,74006,36.7133791,-95.9352075,,,False
167192,212 E BOW DR,CHEROKEE,IA,51012,42.762266,-95.5492614,,,False
267056,600 NW PRYOR RD,LEES SUMMIT,MO,64081,38.9239215,-94.4142656,38.9239215,-94.4142656,True
207070,24 SUMMIT LN,YORK,ME,03909,43.1412096,-70.6503492,,,False
679281,2301 W LAMAR BLVD,ARLINGTON,TX,76012,32.766835,-97.146629,,,False
679191,2500 TEXAS DR,IRVING,TX,75062,32.8397779,-96.9723342,,,False
247217,218 N HOLCOMBE AVE,LITCHFIELD,MN,55355,45.1277093,-94.5250871,,,False
058228,8880 BENSON AVE,MONTCLAIR,CA,91763,34.0888984,-117.6809882,,,False
037202,1725 E OSBORN RD,PHOENIX,AZ,85016,33.487182,-112.0448282,,,False
227144,10 PEARL ST,STOUGHTON,MA,02072,42.1251401,-71.1023998,,,False
387067,2075 NE WYATT CT,BEND,OR,97701,44.0713553,-121.2649344,44.0713553,-121.2649344,True
679093,9119 S GESSNER RD,HOUSTON,TX,77074,29.6884629,-95.5312611,,,False
059002,13624 HAWTHORNE BLVD,HAWTHORNE,CA,90250,33.9083274,-118.3522549,,,False
058322,10660 WHITE OAK AVE,GRANADA HILLS,CA,91344,34.2751267,-118.5196663,,,False
107179,1515 HERBERT ST,PORT ORANGE,FL,32129,29.1312857,-81.0237222,,,False
058165,2200 S FREMONT AVE,ALHAMBRA,CA,91803,34.067332,-118.149085,,,False
387148,7632 SW DURHAM RD,TIGARD,OR,97224,45.4031903,-122.756615,,,False
058146,1 RIDGEGATE DR,TEMECULA,CA,92590,33.4956038,-117.1615851,33.4956038,-117.1615851,True
227420,176 EAST MAIN STREET,WESTBOROUGH,MA,01581,42.287477,-71.59666,,,False
227478,29 CRAFTS ST,NEWTON,MA,02458,42.3548137,-71.1999357,,,False
237445,24001 SOUTHFIELD RD,SOUTHFIELD,MI,48075,42.4617682,-83.2204071,,,False
207020,225 GORHAM RD,SOUTH PORTLAND,ME,04106,43.6355279,-70.3246803,,,False
077020,240 KENSINGTON RD,BERLIN,CT,06037,41.594996,-72.790114,41.594996,-72.790114,True
307070,451 AMHERST ST,NASHUA,NH,03063,42.7901351,-71.5170558,,,False
397795,2655 PHILMONT AVE,HUNTINGDON VALLEY,PA,19006,40.1221394,-75.050155,,,False
397797,2100 SCATTERGOOD ST,PHILADELPHIA,PA,19124,40.0131887,-75.069827,,,False
058376,20110 PIONEER BLVD,CERRITOS,CA,90703,33.8476624,-118.0818996,,,False
058411,1272 CENTER COURT DR,COVINA,CA,91724,34.072971,-117.864442,,,False
247161,2746 SUPERIOR DR NW,ROCHESTER,MN,55901,44.0522261,-92.5237082,,,False
557597,18600 MAIN ST,HUNTINGTON BEACH,CA,92648,33.6915804,-117.9922541,,,False
058299,980 ENCHANTED WAY,SIMI VALLEY,CA,93065,34.2850851,-118.7826496,,,False
077225,24 SCOTT ST,HAMDEN,CT,06514,41.3484399,-72.9338264,41.3484399,-72.9338264,True
058351,520 E FOOTHILL BLVD,POMONA,CA,91767,34.1070494,-117.7395816,,,False
557566,2555 E COLORADO BLVD,PASADENA,CA,91107,34.146196,-118.0976982,,,False
398002,510 E MAIN ST,CARNEGIE,PA,15106,40.4121594,-80.0797182,,,False
677876,6713 BROADWAY ST,PEARLAND,TX,77581,29.5463012,-95.2295727,,,False
237279,7870W US HIGHWAY 2,MANISTIQUE,MI,49854,45.9465805,-86.2760938,45.9465805,-86.2760938,True
257097A,2080 S FRONTAGE RD,VICKSBURG,MS,39180,32.3235009,-90.8658724,,,False
058298,1755 HUNTINGTON DR,DUARTE,CA,91010,34.1395404,-117.9673294,,,False
058375,16921 PARTHENIA ST,NORTHRIDGE,CA,91343,34.2285729,-118.501141,,,False
077182,705 NEW BRITAIN AVE,HARTFORD,CT,06106,41.7291079,-72.7071002,41.7291079,-72.7071002,True
237511,34514 DEQUINDRE,STERLING HEIGHTS,MI,48310,42.5459357,-83.0877441,,,False
337140,115 E STEVENS AVE,VALHALLA,NY,10595,41.098191,-73.7724773,,,False
527178,N17W24100 RIVERWOOD DR,WAUKESHA,WI,53188,43.054775,-88.2282495,,,False
457884,10485 EASTEX FWY,BEAUMONT,TX,77708,30.1699486,-94.1849717,,,False
337005,669 CASTLETON AVE,STATEN ISLAND,NY,10301,40.6352854,-74.1037554,,,False
058368,22151 VENTURA BLVD,WOODLAND HILLS,CA,91364,34.1689978,-118.6099143,,,False
507029,731 N CHELAN AVE,WENATCHEE,WA,98801,47.4332807,-120.3209487,,,False
037226,1840 E UNIVERSITY DR,MESA,AZ,85203,33.423041,-111.7915487,,,False
108044,1920 E HALLANDALE BEACH BLVD,HALLANDALE BEACH,FL,33009,25.9856778,-80.1285579,,,False
368071,3245 E LIVINGSTON AVENUE,COLUMBUS,OH,43227,39.946487,-82.909687,,,False
177202,2872 N RIDGE RD,WICHITA,KS,67205,37.7360475,-97.4246097,,,False
047140,204 BRAGG ST,WARREN,AR,71671,33.613606,-92.077589,,,False
467001,2830S REDWOOD RD A,WEST VALLEY CITY,UT,84119,40.70931,-111.9396688,40.70931,-111.9396688,True
387026,2275 NE DOCTORS DR,BEND,OR,97701,44.0700239,-121.2661859,,,False
107635,2075 CENTRE POINTE BLVD,TALLAHASSEE,FL,32308,30.4745881,-84.2384512,,,False
058450,535 N BRAND BLVD,GLENDALE,CA,91203,34.1543002,-118.2553891,,,False
357037,3223 32ND AVE S,FARGO,ND,58103,46.8314931,-96.8918383,,,False
497455,7323 BOULDER VIEW LN,RICHMOND,VA,23225,37.5132817,-77.5309544,37.5132817,-77.5309544,True
037229,2432 W PEORIA AVE,PHOENIX,AZ,85029,33.584133,-112.1107852,,,False
337281,50 CLINTON ST,HEMPSTEAD,NY,11550,40.7088076,-73.6184931,,,False
497033,1896 PRESTON WHITE DR,RESTON,VA,20191,38.9422612,-77.3276424,,,False
267032,101 FURR ST,FAYETTE,MO,65248,39.139815,-92.689353,,,False
417055,588 PAWTUCKET AVE,PAWTUCKET,RI,02860,41.8573038,-71.3991279,,,False
177090,9920 E HARRY ST,WICHITA,KS,67207,37.6647487,-97.2229505,,,False
267253,9735 LANDMARK PARKWAY DR,SAINT LOUIS,MO,63127,38.5264507,-90.3979943,,,False
167024,1114 DUFF AVE,AMES,IA,50010,42.0322917,-93.6104913,,,False
157550,10700 PARK PL,SAINT JOHN,IN,46373,41.423419,-87.44230300000001,41.423419,-87.44230300000001,True
317048,300 HARPER DR,MOORESTOWN,NJ,08057,39.948702,-74.951159,,,False
679470,6080 SURETY DRIVE,EL PASO,TX,79905,31.7795624,-106.4100178,,,False
297113,2770 S MARYLAND PKWY,LAS VEGAS,NV,89109,36.1393277,-115.1358218,,,False
377031,613 S. MISSISSIPPI,ATOKA,OK,74525,34.3808231,-96.1305155,,,False
453127,12660 COIT RD,DALLAS,TX,75251,32.920901,-96.768805,,,False
177272,1100 COLUMBINE DR,HOLTON,KS,66436,39.4796259,-95.7551836,,,False
267583,4918 WEBER RD,SAINT LOUIS,MO,63123,38.552271,-90.2806313,,,False
477018,46 LAKEMONT RD,NEWPORT,VT,05855,44.9552703,-72.1978478,,,False
058378,21021 DEVONSHIRE ST,CHATSWORTH,CA,91311,34.2573226,-118.5912865,,,False
058263,12370 PERRIS BLVD,MORENO VALLEY,CA,92557,33.9413934,-117.2262708,,,False
673124,604 N MAIN ST,BOERNE,TX,78006,29.7982175,-98.7343878,,,False
207000,15  INDUSTRIAL PARK               RD,SACO,ME,04072,43.5191947,-70.4485222,,,False
417049,30 ROLFE SQUARE,CRANSTON,RI,02910,41.7779597,-71.4359173,,,False
167188,200 JEFFERSON ST,WEST UNION,IA,52175,42.967757,-91.811265,,,False
108095,3408 W 84 STREET BUILDING G,HIALEAH,FL,33018,25.8969993,-80.3528213,25.8969993,-80.3528213,True
058332,1720 E LOS ANGELES AVE,SIMI VALLEY,CA,93065,34.270987,-118.765509,,,False
247269,7111 FORTHUN RD,BAXTER,MN,56425,46.347623,-94.2531732,,,False
248088,2076 SAINT ANTHONY AVE,SAINT PAUL,MN,55104,44.9520806,-93.167107,,,False
058080,3505 HART AVE,ROSEMEAD,CA,91770,34.072787,-118.0688519,,,False
237543,37799 PROFESSIONAL CENTER DR 103,LIVONIA,MI,48154,42.4093305,-83.4170295,42.4093305,-83.4170295,True
107618,13923 ICOT BLVD,CLEARWATER,FL,33760,27.8984567,-82.7143968,27.8984567,-82.7143968,True
267555,1500 HWY 72,ROLLA,MO,65401,37.9569101,-91.7760245,37.9569101,-91.7760245,True
227009,60 HOSPITAL RD,LEOMINSTER,MA,01453,42.5403192,-71.7631299,,,False
058406,23210 CRENSHAW BLVD 200,TORRANCE,CA,90505,33.814824,-118.3275785,33.814824,-118.3275785,True
497596,7410 SPRING VILLAGE DRIVE,SPRINGFIELD,VA,22150,38.7692817,-77.2042556,38.7692817,-77.2042556,True
037230,1212N SPENCER 1,MESA,AZ,85203,33.4374038,-111.8074878,33.4374038,-111.8074878,True
127013,680 IWILEI RD 660,HONOLULU,HI,96817,21.3164212,-157.8705002,21.3164212,-157.8705002,True
267511,3322 S CAMPBELL AVE,SPRINGFIELD,MO,65807,37.1532558,-93.293874,,,False
037231,2737 W BASELINE RD,TEMPE,AZ,85283,33.3769633,-111.9777331,,,False
058443,2204 TORRANCE BLVD,TORRANCE,CA,90501,33.8360629,-118.3217161,,,False
673108,2023 DEEPWOOD ST,MESQUITE,TX,75181,32.7401235,-96.5492123,,,False
527137,990 MAIN STREET,BALDWIN,WI,54002,44.966634,-92.3747021,,,False
387151,4560 SE INTERNATIONAL WAY,MILWAUKIE,OR,97222,45.4354995,-122.6166862,,,False
167288,104 W SOUTHRIDGE RD,MARSHALLTOWN,IA,50158,42.017701,-92.9142535,,,False
058018,8929 S SEPULVEDA BLVD,WESTCHESTER,CA,90045,33.9551029,-118.3963772,,,False
247216,1409 MN-7,MONTEVIDEO,MN,56265,44.9523996,-95.7097208,,,False
058382,135 S JACKSON ST,GLENDALE,CA,91205,34.1450648,-118.2504361,,,False
453195,2608 TEXAS DRIVE,IRVING,TX,75062,32.8409552,-96.972726,,,False
147780,2720 S RIVER RD,DES PLAINES,IL,60018,42.0035565,-87.8654014,,,False
057659,980 TRANCAS ST,NAPA,CA,94558,38.3242166,-122.295515,,,False
557433,441 COLLEGE AVE,SANTA ROSA,CA,95401,38.4458321,-122.7190475,,,False
557792,1414 S AZUSA AVE,WEST COVINA,CA,91791,34.04776,-117.90688,,,False
217034,1 FREDERICK HEALTH WAY,FREDERICK,MD,21701,39.4534584,-77.3944512,,,False
197135,110 NORTH FRONT STREET,OAK GROVE,LA,71263,32.8638602,-91.388981,,,False
177185,302 N HOSPITAL DR,GIRARD,KS,66743,37.5146608,-94.857319,,,False
057256,2127 HARRISON AVE,EUREKA,CA,95501,40.7879958,-124.139496,,,False
157558,9721 PRAIRIE AVE,HIGHLAND,IN,46322,41.5375022,-87.4761218,,,False
147207,5101 WILLOW SPRINGS RD,LA GRANGE,IL,60525,41.7888841,-87.8880919,,,False
107527,8147 COPERNICUS WAY 101,TRINITY,FL,34655,28.2104359,-82.6791456,28.2104359,-82.6791456,True
497594,10043 MIDLOTHIAN TPKE,NORTH CHESTERFIELD,VA,23235,37.5057007,-77.5823265,37.5057007,-77.5823265,True
227072,310 BAKER AVE,CONCORD,MA,01742,42.4602288,-71.3900216,,,False
197558,3636 S I-10 SERVICE ROAD W,METAIRIE,LA,70001,29.9970873,-90.1635989,,,False
227288,67 HUNT ST,AGAWAM,MA,01001,42.0830876,-72.5937373,,,False
077136,12 PROGRESS DR,SHELTON,CT,06484,41.2727858,-73.1311008,41.2727858,-73.1311008,True
673187,801 S HIGHWAY 78,WYLIE,TX,75098,33.0217372,-96.5241081,,,False
557116,1350 BAYSHORE HWY,BURLINGAME,CA,94010,37.594585,-122.3638645,,,False
347110,1005 SLATER RD,DURHAM,NC,27703,35.877633,-78.8415629,,,False
673172,4312 ONYX DR,CARROLLTON,TX,75010,33.0301527,-96.8662592,,,False
097024,1100 H ST NW,WASHINGTON,DC,20005,38.899733,-77.02719,,,False
217045,134 INDUSTRY LN,FOREST HILL,MD,21050,39.5772355,-76.3706027,,,False
377632,121 S 5TH ST,HENRYETTA,OK,74437,35.4395409,-95.9871416,,,False
237592,1404 EUREKA RD,WYANDOTTE,MI,48192,42.2000524,-83.1694631,,,False
307046,312 MARLBORO ST,KEENE,NH,03431,42.9236626,-72.2645663,,,False
367447,1111N PLUM ST 5,SPRINGFIELD,OH,45504,39.9385301,-83.8172805,39.9385301,-83.8172805,True
057200,10875 PIONEER TRL,TRUCKEE,CA,96161,39.3344396,-120.1819435,,,False
673101,405 N MAIN ST,MCALLEN,TX,78501,26.2076129,-98.2339443,,,False
368003,4600 MCAULEY PL,BLUE ASH,OH,45242,39.244592,-84.380562,,,False
237569,30275 W 13 MILE RD,FARMINGTON HILLS,MI,48334,42.5138785,-83.3521374,,,False
457937,1221 ARISTA DR,ROCKWALL,TX,75032,32.8878639,-96.472116,32.8878639,-96.472116,True
457858,6112 N 10TH ST,MCALLEN,TX,78504,26.258272,-98.2205923,,,False
457953,4715 MONARCH FALLS LN,RICHMOND,TX,77469,29.4957324,-95.7671031,29.4957324,-95.7671031,True
248056,25 1ST AVE NE,BUFFALO,MN,55313,45.1723589,-93.8749189,,,False
108150,14680 SW 8TH ST,MIAMI,FL,33184,25.7594549,-80.4319148,,,False
467061,576 W 900 S,WOODS CROSS,UT,84010,40.883269,-111.905234,,,False
327188,215 W 3RD ST,ROSWELL,NM,88201,33.39546,-104.5247339,,,False
368079,4850 SMITH RD,CINCINNATI,OH,45212,39.1631981,-84.4535557,39.1631981,-84.4535557,True
407051,359 DE DIEGO AVE,SAN JUAN,PR,00909,18.4465558,-66.0679092,18.4465558,-66.0679092,True
077159,97 BARNES RD,WALLINGFORD,CT,06492,41.4848229,-72.8025924,41.4848229,-72.8025924,True
177275,312 E CUSTER ST,NESS CITY,KS,67560,38.4581143,-99.9013138,38.4581143,-99.9013138,True
337261,2555 OCEAN AVE,BROOKLYN,NY,11229,40.5991824,-73.9511732,,,False
377580,2028 E MEMORIAL RD,EDMOND,OK,73013,35.6092711,-97.4259043,,,False
557685,2490 HONOLULU AVE,MONTROSE,CA,91020,34.2072844,-118.2338857,34.2072844,-118.2338857,True
027014,212 CARLANNA LAKE RD,KETCHIKAN,AK,99901,55.3541673,-131.6873979,,,False
507079,11800 NE 128TH ST #200,KIRKLAND,WA,98034,47.71527039999999,-122.1842148,47.71527039999999,-122.1842148,True
108169,1681 W 37TH ST,HIALEAH,FL,33012,25.8555637,-80.3166019,,,False
108125,1269 E SILVER SPRINGS BLVD,OCALA,FL,34470,29.1871204,-82.1217595,,,False
117081,3633 WHEELER RD,AUGUSTA,GA,30909,33.4830486,-82.0892635,,,False
248085,10550 WAYZATA BLVD,MINNETONKA,MN,55305,44.9726418,-93.4072511,,,False
368093,4641 LEAP CT,HILLIARD,OH,43026,40.0345169,-83.1400026,,,False
297130,1601 S RAINBOW BLVD,LAS VEGAS,NV,89146,36.1462419,-115.2429292,,,False
058158,6422 BELLINGHAM AVE 210,NORTH HOLLYWOOD,CA,91606,34.1874377,-118.3984744,34.1874377,-118.3984744,True
237446,43184 DEQUINDRE RD,STERLING HEIGHTS,MI,48314,42.6083431,-83.090619,,,False
507004,4200 6TH AVE SE,LACEY,WA,98503,47.0435563,-122.831325,,,False
077205,999 ORONOQUE LN,STRATFORD,CT,06614,41.2482468,-73.1021419,,,False
307040,107 NEWPORT RD,NEW LONDON,NH,03257,43.4214881,-71.9960837,,,False
077226,700 W JOHNSON AVE,CHESHIRE,CT,06410,41.5586508,-72.9177977,41.5586508,-72.9177977,True
237581,4611 ALLEN RD,ALLEN PARK,MI,48101,42.2686385,-83.1979957,,,False
557482,11879 KEMPER RD,AUBURN,CA,95603,38.9316874,-121.091935,38.9316874,-121.091935,True
147807,2111 CHESTNUT AVE,GLENVIEW,IL,60025,42.0873148,-87.8107698,,,False
177053,620 W CENTRAL AVE,EL DORADO,KS,67042,37.8175025,-96.8570681,,,False
057187,15050 IMPERIAL HWY,LA MIRADA,CA,90638,33.9170239,-118.010331,,,False
037125,3075 N SWAN RD,TUCSON,AZ,85712,32.2307745,-110.8925788,,,False
679023,409 E CENTERVILLE RD,GARLAND,TX,75041,32.8742406,-96.6272261,,,False
457894,10470 VISTA DEL SOL DR,EL PASO,TX,79925,31.7568985,-106.3458817,,,False
467217,5250 S COMMERCE DR,MURRAY,UT,84107,40.6506281,-111.9013682,,,False
108177,1380 NE MIAMI GARDENS DRIVE,NORTH MIAMI BEACH,FL,33179,25.9442667,-80.1735384,,,False
457950,13004 MURPHY RD,STAFFORD,TX,77477,29.633794,-95.5649434,,,False
678078,8200 BROOKRIVER DR,DALLAS,TX,75247,32.8225015,-96.8677421,,,False
177101,805 BROADWAY,MARYSVILLE,KS,66508,39.841622,-96.6478701,,,False
677828,905 W EMBERCREST DR,ARLINGTON,TX,76017,32.6683507,-97.1217963,,,False
248087,2395 ARIEL ST N,MAPLEWOOD,MN,55109,45.0134824,-93.0152109,,,False
227003,34 PEARLY LN,GARDNER,MA,01440,42.5940852,-71.9621872,,,False
407031,CALLE RAFOLS #125,QUEBRADILLAS,PR,00678,18.4724349,-66.9394185,,,False
297036,7380 W SAHARA AVE,LAS VEGAS,NV,89117,36.1439459,-115.2536662,,,False
347042,3722 BRIDGES ST,MOREHEAD CITY,NC,28557,34.7257697,-76.7608302,,,False
337233,1 FOXCARE DR,ONEONTA,NY,13820,42.4562662,-75.0294915,,,False
057567,10507 GARDEN GROVE BLVD,GARDEN GROVE,CA,92843,33.7746645,-117.949151,,,False
108134,"548 NW UNIVERSITY BLVD, # 101",PORT ST LUCIE,FL,34986,27.3204721,-80.4021333,27.3204721,-80.4021333,True
287028,825 DORCAS ST,OMAHA,NE,68108,41.239344,-95.927148,,,False
237609,29930 W 12 MILE RD,FARMINGTON HILLS,MI,48334,42.499651,-83.3451808,,,False
527027,111 S JEFFERSON ST,LANCASTER,WI,53813,42.8477598,-90.7111809,,,False
058391,8215 VAN NUYS BLVD,PANORAMA CITY,CA,91402,34.2202662,-118.4491503,,,False
237614,2520 N EUCLID AVE,BAY CITY,MI,48706,43.6056704,-83.9150015,,,False
248076,2257 LOUISIANA AVE S,SAINT LOUIS PARK,MN,55426,44.9605534,-93.3705782,,,False
197178,1327 STELLY LANE,SULPHUR,LA,70663,30.2293346,-93.3678874,,,False
679431,107 S 4TH ST,MIDLOTHIAN,TX,76065,32.481756,-96.999085,,,False
237587,51145 NICOLETTE DR,CHESTERFIELD,MI,48047,42.6759512,-82.7806224,,,False
047033,1726 MARIE CIRCLE,JONESBORO,AR,72401,35.8246547,-90.6718981,,,False
108202,10300 SW 72ND ST,MIAMI,FL,33173,25.7003539,-80.3606508,,,False
677866,830 JULIE RIVERS DR,SUGAR LAND,TX,77478,29.6299247,-95.6010055,,,False
667001,POB 10003 PMB 1341,SAIPAN,MP,96950,15.1850483,145.7467259,15.1850483,145.7467259,True
147730,15W700 N FRONTAGE RD,BURR RIDGE,IL,60527,41.7503787,-87.932695,41.7503787,-87.932695,True
677889,11110 PETAL ST,DALLAS,TX,75238,32.8822293,-96.6889447,,,False
677927,3306 LARKIN LN,ROWLETT,TX,75089,32.9267902,-96.5685014,,,False
367733,501 WASHINGTON STREET,SOUTH POINT,OH,45680,38.4243197,-82.5797853,38.4243197,-82.5797853,True
679449,8515 FONDREN RD,HOUSTON,TX,77074,29.6862579,-95.5082449,,,False
147826,940 W ADAMS ST,CHICAGO,IL,60607,41.879678,-87.6511433,,,False
377196,209 48TH AVE NW,NORMAN,OK,73072,35.218733,-97.5117799,,,False
377643,111 S YORK ST,MUSKOGEE,OK,74403,35.7378365,-95.340816,,,False
108248,1535 SW 87TH AVE,MIAMI,FL,33174,25.7553423,-80.3355881,,,False
237274,209 E WASHINGTON AVE,JACKSON,MI,49201,42.2455519,-84.4036252,,,False
453157,5339 ALPHA RD,DALLAS,TX,75240,32.9340018,-96.8158444,,,False
107690,426 SW COMMERCE DR,LAKE CITY,FL,32025,30.1755045,-82.6851284,,,False
077079,61 MAIN ST,CENTERBROOK,CT,06409,41.3520705,-72.4163123,41.3520705,-72.4163123,True
257087,18 MELODY LANE,COLLINS,MS,39428,31.628813,-89.5559691,31.628813,-89.5559691,True
557204,7777 GREENBACK LN,CITRUS HEIGHTS,CA,95610,38.6783919,-121.2773973,,,False
248037,800 BOONE N AVE 200,GOLDEN VALLEY,MN,55427,44.9876554,-93.3895114,44.9876554,-93.3895114,True
117080,1676 MULKEY ROAD,AUSTELL,GA,30106,33.8592138,-84.6039589,33.8592138,-84.6039589,True
077066,27 GOVERNOR ST,RIDGEFIELD,CT,06877,41.281023,-73.49586,41.281023,-73.49586,True
447564,2995 APPLING RD,BARTLETT,TN,38133,35.2072136,-89.8085768,,,False
367799,3130 EXECUTIVE PKWY,TOLEDO,OH,43606,41.6782433,-83.6287781,,,False
197779,8070 CROWDER BLVD,NEW ORLEANS,LA,70127,30.0414684,-90.0004967,,,False
177243,100 W 16TH ST,EUREKA,KS,67045,37.8353151,-96.2935104,,,False
107717,1009 MAITLAND CENTER COMMONS BLVD,MAITLAND,FL,32751,28.6370613,-81.3979835,28.6370613,-81.3979835,True
147837,7820 GRAPHIC DR,TINLEY PARK,IL,60477,41.5515855,-87.8074699,41.5515855,-87.8074699,True
677897,302 KINGS HWY,BROWNSVILLE,TX,78521,25.9243982,-97.4705317,,,False
377461,4150 S 100TH EAST AVE,TULSA,OK,74146,36.1025386,-95.8661973,,,False
237615,1705 WOODLAND DR,SALINE,MI,48176,42.1821847,-83.7879614,,,False
057679,10 CONSTITUTION DR,CHICO,CA,95973,39.7716554,-121.8742523,,,False
058330,14625 CARMENITA RD,NORWALK,CA,90650,33.8986761,-118.0464949,,,False
397051B,4 LIFE MARK DR,SELLERSVILLE,PA,18960,40.3630658,-75.3304272,40.3630658,-75.3304272,True
679472,8344 E RL THRTN FWY,DALLAS,TX,75228,32.7947801,-96.6926975,32.7947801,-96.6926975,True
109518,350 CAMINO GARDENS BLVD,BOCA RATON,FL,33432,26.3407622,-80.0931873,,,False
557014,245 NEW YORK RANCH RD,JACKSON,CA,95642,38.3565596,-120.7673987,,,False
377692,1103 E 13TH ST,GROVE,OK,74344,36.5830881,-94.7624084,,,False
557447,5315 TORRANCE BLVD,TORRANCE,CA,90503,33.8375241,-118.3699609,,,False
337276,530W 166TH ST 3,NEW YORK,NY,10032,40.8392345,-73.9396032,40.8392345,-73.9396032,True
108222,3 PINE CONE DR,PALM COAST,FL,32137,29.5527165,-81.2299919,,,False
467071,560 W 800 N,OREM,UT,84057,40.312141,-111.710092,,,False
107115,1619 PHYSICIANS DRIVE,TALLAHASSEE,FL,32308,30.4609416,-84.2585065,,,False
177060,1709 W 7TH ST,CHANUTE,KS,66720,37.674691,-95.475284,,,False
157570,770 N MAIN ST,CROWN POINT,IN,46307,41.4253937,-87.3643244,,,False
337415,4102 VESTAL RD,VESTAL,NY,13850,42.0970598,-75.9752675,,,False
227486,300 BROOKSBY VILLAGE DR,PEABODY,MA,01960,42.5518609,-70.9726127,,,False
237459,5440 CORPORATE DR,TROY,MI,48098,42.5985404,-83.1701482,,,False
677993,26077 NELSON WAY,KATY,TX,77494,29.7761016,-95.8241317,,,False
237645,29256 RYAN RD,WARREN,MI,48092,42.5076524,-83.0674441,,,False
677937,10864 AUDELIA RD 100,DALLAS,TX,75238,32.896562,-96.7173138,32.896562,-96.7173138,True
058064,2934 E GARVEY AVE S,WEST COVINA,CA,91791,34.0713063,-117.8828192,,,False
237603,28551 SOUTHFIELD RD,LATHRUP VILLAGE,MI,48076,42.5019575,-83.2225605,,,False
077175,56 QUARRY RD,TRUMBULL,CT,06611,41.2275353,-73.1824563,41.2275353,-73.1824563,True
147854,1974 MINER ST,DES PLAINES,IL,60016,42.0391113,-87.8743229,,,False
377520,519 W DELAWARE,PURCELL,OK,73080,35.008241,-97.3667993,,,False
059223,1901 E LAMBERT RD,LA HABRA,CA,90631,33.9246945,-117.924878,,,False
167049,3201 1ST ST,EMMETSBURG,IA,50536,43.1205449,-94.6917518,,,False
147864,16634 107TH ST,ORLAND PARK,IL,60467,41.589107,-87.87826609999999,41.589107,-87.87826609999999,True
447558,900 CONFERENCE DR,GOODLETTSVILLE,TN,37072,36.323644,-86.701183,,,False
217155,8820 WALTHER BLVD,PARKVILLE,MD,21234,39.392188,-76.5082346,,,False
157217,328 N 2ND ST,VINCENNES,IN,47591,38.6816511,-87.5293047,,,False
058417,9007 ARROW RTE 100,RANCHO CUCAMONGA,CA,91730,34.0986946,-117.6089967,34.0986946,-117.6089967,True
058484,9221 CORBIN AVE,NORTHRIDGE,CA,91324,34.2378431,-118.562408,,,False
167140,910 N EISENHOWER AVE,MASON CITY,IA,50401,43.1555862,-93.2636709,,,False
108277,1021 IVES DAIRY RD,MIAMI,FL,33179,25.9651846,-80.181022,,,False
459438,2720 E YANDELL DR,EL PASO,TX,79903,31.780899,-106.4632978,,,False
197104,660 OAK HARBOR BLVD,SLIDELL,LA,70458,30.2441246,-89.7930808,,,False
059132,9269 UTICA AVE,RANCHO CUCAMONGA,CA,91730,34.0851996,-117.5713663,,,False
368083,681 E 3RD ST,WAVERLY,OH,45690,39.1327587,-82.9737558,,,False
227057,30 SUDBURY RD,ACTON,MA,01720,42.4392337,-71.4317872,,,False
677941,201 W HILLSIDE RD,LAREDO,TX,78041,27.5468439,-99.4968741,,,False
167030,101 E 10TH ST,SPENCER,IA,51301,43.147906,-95.14355,,,False
237716,3830 PACKARD RD,ANN ARBOR,MI,48108,42.2436979,-83.6848766,,,False
679196,16100 CAIRNWAY DR,HOUSTON,TX,77084,29.8419106,-95.6438129,,,False
677970,9888 BISSONNET ST,HOUSTON,TX,77036,29.6751884,-95.5533656,,,False
147774,107 E JEFFERSON STREET,SULLIVAN,IL,61951,39.598512,-88.6062632,,,False
267161,1010 N JESSE JAMES RD,EXCELSIOR SPRINGS,MO,64024,39.3504976,-94.2352527,,,False
087036,501 HEALTH SERVICES DR,SEAFORD,DE,19973,38.6603901,-75.6030801,,,False
057190,585 N MARY AVE,SUNNYVALE,CA,94085,37.3926074,-122.037923,,,False
197194,112 INNWOOD DR,COVINGTON,LA,70433,30.4596448,-90.1179401,30.4596448,-90.1179401,True
107632,391 COMMERCE PKWY,ROCKLEDGE,FL,32955,28.3110664,-80.718422,,,False
679511,7203 ATHLONE DR,HOUSTON,TX,77088,29.865818,-95.463326,,,False
167156,613 W MAIN ST,MANCHESTER,IA,52057,42.4840013,-91.4647952,,,False
297132,6002 S DURANGO DR,LAS VEGAS,NV,89113,36.1295558,-115.2790635,,,False
059069,2161 COLORADO BLVD 205,LOS ANGELES,CA,90041,34.1394907,-118.2134079,34.1394907,-118.2134079,True
177289,2121 MEADOWLARK RD,MANHATTAN,KS,66502,39.209503,-96.5772675,,,False
417006A,51 HEALTH LN,WARWICK,RI,02886,41.7059082,-71.4797188,,,False
058037,1601 CARMEN DR,CAMARILLO,CA,93010,34.230885,-119.052173,,,False
679579,1111 W NOLANA AVE,MCALLEN,TX,78504,26.2393077,-98.2243513,,,False
237163,2550 MEADOWBROOK RD,BENTON HARBOR,MI,49022,42.0790337,-86.39668309999999,42.0790337,-86.39668309999999,True
147027,8160 EXPRESS DR,MARION,IL,62959,37.7465669,-89.00900759999999,37.7465669,-89.00900759999999,True
337207,3333 ELMWOOD AVE,KENMORE,NY,14217,42.9536551,-78.8782963,,,False
679542,1901 CENTRAL DR,BEDFORD,TX,76021,32.840157,-97.133554,,,False
108272,7705 NW 48TH ST,DORAL,FL,33166,25.8167326,-80.3234887,,,False
017153,100 CONCOURSE PKWY,HOOVER,AL,35244,33.352736,-86.785256,,,False
108078,101 E FAITH TER,MAITLAND,FL,32751,28.6422708,-81.3652616,28.6422708,-81.3652616,True
267562,1924 MARCONI AVE,SAINT LOUIS,MO,63110,38.6172472,-90.2726284,,,False
237617,25932 DEQUINDRE RD,WARREN,MI,48091,42.4828513,-83.084683,,,False
477002,88 PROSPECT ST,WHITE RIVER JUNCTION,VT,05001,43.652269,-72.3152068,,,False
237707,888 W BIG BEAVER RD,TROY,MI,48084,42.5627285,-83.1651973,,,False
677949,18601 LYNDON B JOHNSON FWY,MESQUITE,TX,75150,32.8036767,-96.6278839,,,False
679559,1633 W KINGS HWY,SAN ANTONIO,TX,78201,29.4604133,-98.5228695,,,False
117118,1626 JEURGENS CT,NORCROSS,GA,30093,33.9201971,-84.1819215,33.9201971,-84.1819215,True
679558,9304 FOREST LANE,DALLAS,TX,75243,32.9079418,-96.7383692,,,False
037245,23460 N 19TH AVE,PHOENIX,AZ,85027,33.700185,-112.1000772,,,False
237630,27301 DEQUINDRE RD,MADISON HEIGHTS,MI,48071,42.4940814,-83.085335,,,False
368147,2245 N BANK DR,COLUMBUS,OH,43220,40.0560967,-83.0806727,40.0560967,-83.0806727,True
247292,11777 XEON BLVD NW,COON RAPIDS,MN,55448,45.18432,-93.30171,,,False
077176,8 OLD MILL LN,SIMSBURY,CT,06070,41.8713941,-72.8103821,41.8713941,-72.8103821,True
227241,120 LONGWATER DR,NORWELL,MA,02061,42.1568248,-70.8792144,,,False
059629,410 E FLORENCE AVE,INGLEWOOD,CA,90301,33.9677398,-118.3500907,,,False
307022,178 FARMINGTON RD,ROCHESTER,NH,03867,43.3434078,-71.0231094,,,False
177159,100 W 8TH ST,ONAGA,KS,66521,39.4951528,-96.1722273,,,False
679699,316 IBERIS DR,ARLINGTON,TX,76018,32.6640696,-97.1089958,,,False
458346,521 CEDAR ST,TEAGUE,TX,75860,31.6281414,-96.2824181,,,False
197023,832 E BOSTON ST,COVINGTON,LA,70433,30.4765263,-90.0898494,,,False
108334,7880 W OAKLAND PARK BLVD,SUNRISE,FL,33351,26.1666684,-80.2554822,,,False
679708,1140 EMPIRE CENTRAL DR,DALLAS,TX,75247,32.8247762,-96.8769646,,,False
107718,182 BARTON BLVD,ROCKLEDGE,FL,32955,28.330968,-80.7258597,,,False
107773,8669 NW 36TH ST,DORAL,FL,33166,25.8108891,-80.33626,,,False
107704,7899 BAYMEADOWS WAY,JACKSONVILLE,FL,32256,30.227901,-81.5811841,,,False
397104A,12265 TOWNSEND RD,PHILADELPHIA,PA,19154,40.1012384,-74.9860284,,,False
337430,1040 HAVEMEYER AVE,BRONX,NY,10462,40.8298044,-73.8474912,,,False
317066,6550 DELILAH RD,EGG HARBOR TOWNSHIP,NJ,08234,39.4279977,-74.5612241,,,False
527132,1726 SHAWANO AVE,GREEN BAY,WI,54303,44.5338613,-88.0664483,,,False
337299,75 VANDERBILT AVE,STATEN ISLAND,NY,10304,40.62218,-74.0757858,,,False
367089,909E WAYNE ST 126,CELINA,OH,45822,40.5596569,-84.552849,40.5596569,-84.552849,True
307082,77 NORTHEASTERN BLVD,NASHUA,NH,03062,42.7371259,-71.4856866,,,False
679595,7515 LAS FLORES DR,HOUSTON,TX,77083,29.6958476,-95.6486381,29.6958476,-95.6486381,True
227495,199 ROSEWOOD DR,DANVERS,MA,01923,42.5650746,-70.9871651,,,False
108068,5286 APPLEGATE DR,SPRING HILL,FL,34606,28.4545389,-82.6285015,,,False
227082A,30 RESERVOIR DR,ROCKLAND,MA,02370,41.145936,-73.964354,,,False
337431,3525 BAYCHESTER AVE,BRONX,NY,10466,40.8819548,-73.8395491,,,False
507007,201 16TH AVE E,SEATTLE,WA,98112,47.6207733,-122.312607,,,False
227498,217 LINCOLN ST,WINTHROP,MA,02152,42.3794955,-70.9840983,,,False
397646,128 W GIRARD AVE,PHILADELPHIA,PA,19123,39.9689008,-75.1371949,,,False
147175,1108 N ALLEN ST,ROBINSON,IL,62454,39.0147934,-87.7488816,,,False
367784,2267 VILLAGE MALL DR,ONTARIO,OH,44906,40.7752829,-82.5950832,,,False
237647,2305 E PARIS AVE SE,GRAND RAPIDS,MI,49546,42.921726,-85.569342,,,False
368175,8849 BROOKSIDE AVE,WEST CHESTER,OH,45069,39.3304699,-84.4103919,39.3304699,-84.4103919,True
057631,3400 DATA DR,RANCHO CORDOVA,CA,95670,38.584376,-121.292907,,,False
197508,330 AMELIA ST,GRETNA,LA,70053,29.9183734,-90.061335,,,False
037024,3634 N DRINKWATER BLVD,SCOTTSDALE,AZ,85251,33.4903558,-111.9222468,,,False
447184,500 SOUTH JAMES CAMPBELL BLVD,COLUMBIA,TN,38401,35.592287,-87.050151,,,False
167243,400 CENTRAL AVE NW,ORANGE CITY,IA,51041,43.009558,-96.05831,,,False
187053,1600 BRECKENRIDGE ST,OWENSBORO,KY,42303,37.761734,-87.098311,,,False
557603,317 W LAS TUNAS DR,SAN GABRIEL,CA,91776,34.102556,-118.1029627,,,False
108379,9360 SUNSET DR,MIAMI,FL,33173,25.7060829,-80.330993,,,False
237638,20663 CHURCHILL AVE,BROWNSTOWN TWP,MI,48183,42.0993416,-83.2344496,,,False
108380,4001 W 23RD ST,PANAMA CITY,FL,32405,30.189797,-85.710292,,,False
108378,1500 GATEWAY BLVD,BOYNTON BEACH,FL,33426,26.5457922,-80.0881359,,,False
679748,7111 HARWIN DR,HOUSTON,TX,77036,29.717892,-95.50909,,,False
127025,2228 LILIHA ST,HONOLULU,HI,96817,21.3289351,-157.8525844,,,False
077191,21 HIGH ST,EAST HARTFORD,CT,06118,41.7440596,-72.6346585,41.7440596,-72.6346585,True
679686,638 E MARKET ST,ROCKPORT,TX,78382,28.0211194,-97.0561669,,,False
037199,1626 S EDWARD DR,TEMPE,AZ,85281,33.4101914,-111.967949,,,False
147940,1 TRANSAM PLAZA DR 180,OAKBROOK TERRACE,IL,60181,41.8487881,-87.9862311,41.8487881,-87.9862311,True
167012,2535 MAPLECREST RD,BETTENDORF,IA,52722,41.5547207,-90.4960046,,,False
677933,18038 BARTON RIDGE LN,RICHMOND,TX,77407,29.6943046,-95.6943897,29.6943046,-95.6943897,True
347104,2402 WAYNE MEMORIAL DR,GOLDSBORO,NC,27534,35.3983803,-77.9611287,,,False
237666,25899 W 12 MILE RD,SOUTHFIELD,MI,48034,42.4999651,-83.3015136,,,False
679626,6233 EVERS RD 1,SAN ANTONIO,TX,78238,29.4964104,-98.607008,29.4964104,-98.607008,True
679319,2008 E RANDOL MILL ROAD,ARLINGTON,TX,76011,32.7491366,-97.0787126,,,False
747168,1600 E EXPRESSWAY 83,LA FERIA,TX,78559,26.1686746,-97.8124274,,,False
137111,1680 ELK CREEK DR,IDAHO FALLS,ID,83404,43.4660427,-112.0005849,,,False
058104,3425 POMONA BLVD,POMONA,CA,91768,34.0473482,-117.8107625,,,False
108371,9428 BAYMEADOWS RD,JACKSONVILLE,FL,32256,30.2194537,-81.5622505,,,False
407014,"SECTOR CAMPO ALEGRE CARR 2, KM.46.4",MANATI,PR,00674,18.4338329,-66.6134544,18.4338329,-66.6134544,True
147926,1508 BLOOMINGDALE RD,GLENDALE HEIGHTS,IL,60139,41.914616,-88.0813305,,,False
227015,20 HOSPITAL DR,HOLYOKE,MA,01040,42.1999739,-72.6285801,,,False
679652,1181 VALLEY RIDGE BLVD,LEWISVILLE,TX,75077,33.0565245,-97.0185987,,,False
237659,30800 TELEGRAPH RD,BINGHAM FARMS,MI,48025,42.5224688,-83.2856322,,,False
157077,4550 MIDDLE RD,COLUMBUS,IN,47203,39.2513745,-85.8946935,,,False
679663,6525 W. SAM HOUSTON PKWY N.,HOUSTON,TX,77041,29.8668373,-95.5634342,,,False
377706,1016 E SHAWNTEL SMITH BLVD,MULDROW,OK,74848,35.4043142,-94.5821756,,,False
108432,2105 N STATE ROAD 7,HOLLYWOOD,FL,33021,26.0287456,-80.2079401,26.0287456,-80.2079401,True
747078,1835 S SAM HOUSTON ST,SAN BENITO,TX,78586,26.117429,-97.6442374,26.117429,-97.6442374,True
037232,11070 N 24TH AVE,PHOENIX,AZ,85029,33.5869978,-112.1117901,,,False
077239,2080 SILAS DEANE HWY,ROCKY HILL,CT,06067,41.6714202,-72.6434448,41.6714202,-72.6434448,True
108069,1200 S FEDERAL HWY,BOYNTON BEACH,FL,33435,26.508809,-80.0595685,,,False
237696,25334 5 MILE RD,REDFORD,MI,48239,42.3997923,-83.2903763,,,False
237714,30600 TELEGRAPH RD,BINGHAM FARMS,MI,48025,42.5224688,-83.2856322,,,False
237447,34514 DEQUINDRE RD,STERLING HEIGHTS,MI,48310,42.5459357,-83.0877441,,,False
037250,10000 N 31ST AVE,PHOENIX,AZ,85051,33.5776775,-112.1269273,,,False
197037,125 N THEARD ST,COVINGTON,LA,70433,30.4752388,-90.099199,,,False
037246,4150 W PEORIA AVE,PHOENIX,AZ,85029,33.5824018,-112.1478538,,,False
058438,1220 HEMLOCK WAY,SANTA ANA,CA,92707,33.7095359,-117.8845008,,,False
059143,3469 TENNESSEE ST,VALLEJO,CA,94591,38.1087059,-122.2039223,,,False
237700,43494 WOODWARD AVE,BLOOMFIELD HILLS,MI,48302,42.6078599,-83.2671037,,,False
337008,220 EAST 42ND STREET,NEW YORK,NY,10017,40.7501297,-73.9733465,,,False
237693,1380 COOLIDGE HWY,TROY,MI,48084,42.5469633,-83.1864122,,,False
147933,182 W MELROSE AVE,SOUTH ELGIN,IL,60177,42.0026802,-88.2953,,,False
057368,277 SOUTH ST,SAN LUIS OBISPO,CA,93401,35.2694232,-120.6666212,,,False
147727,6730 W HIGGINS AVENUE,CHICAGO,IL,60656,41.9790671,-87.7961687,,,False
227499,4 STONY HILL RD,WILBRAHAM,MA,01095,42.1552861,-72.483848,,,False
077086A,117 MAIN ST,MIDDLETOWN,CT,06457,41.5580899,-72.6485885,41.5580899,-72.6485885,True
037286,8687 E VIA DE VENTURA,SCOTTSDALE,AZ,85258,33.5527981,-111.8922361,,,False
337006,650 AIRBORNE PARKWAY,CHEEKTOWAGA,NY,14225,42.9394185,-78.7174063,,,False
059000,5670 WILSHIRE BLVD,LOS ANGELES,CA,90036,34.0622451,-118.3519477,,,False
237708,41100 FOX RUN RD,NOVI,MI,48377,42.511003,-83.455664,,,False
387048,6410 NE HALSEY ST,PORTLAND,OR,97213,45.5335934,-122.5974392,,,False
237711,30925 FORD RD,GARDEN CITY,MI,48135,42.3251908,-83.3442973,,,False
447086,6400 SHELBY VIEW DRIVE,MEMPHIS,TN,38134,35.1769748,-89.8506604,,,False
497285,64 SPORTS MEDICINE DRIVE,FISHERSVILLE,VA,22939,38.0942342,-78.9835588,,,False
147977,7301 N LINCOLN AVE,LINCOLNWOOD,IL,60712,42.0153096,-87.7439439,,,False
058047,12145 MORA DR,SANTA FE SPRINGS,CA,90670,33.9400559,-118.0740587,,,False
398072,10000 ANNS CHOICE WAY,WARMINSTER,PA,18974,40.1994441,-75.0711074,40.1994441,-75.0711074,True
077242,104 PARK RD,WEST HARTFORD,CT,06119,41.7576717,-72.7192984,,,False
237709,5226 STATE ST,SAGINAW,MI,48603,43.4369726,-84.0192271,,,False
527261,406 TECHNOLOGY DR E,MENOMONIE,WI,54751,44.8785091,-91.8931413,,,False
227470,36W MAIN ST,WESTBOROUGH,MA,01581,42.2714537,-71.6123485,42.2714537,-71.6123485,True
227053,37 BROADWAY,ARLINGTON,MA,02474,42.408172,-71.1357598,,,False
347173,5 OAK BRANCH DR,GREENSBORO,NC,27407,36.059071,-79.861157,,,False
057018,2500 E COLORADO BLVD,PASADENA,CA,91107,34.146022,-118.098506,,,False
058458,225 E BROADWAY,GLENDALE,CA,91205,34.146593,-118.2529685,,,False
057627,250 E OLIVE AVE,BURBANK,CA,91502,34.1815745,-118.3075289,,,False
297144,6225 DEAN MARTIN DR,LAS VEGAS,NV,89118,36.078371,-115.1814299,,,False
227122,165 TOR COURT,PITTSFIELD,MA,01201,42.4575833,-73.2812228,,,False
317054,465 SOUTH ST,MORRISTOWN,NJ,07960,40.7847843,-74.4681382,,,False
037154,3085 N WINDSONG DR,PRESCOTT VALLEY,AZ,86314,34.5861114,-112.3267711,,,False
447139,3001 LAKE BROOK BLVD,KNOXVILLE,TN,37909,35.946786,-84.030227,,,False
297015,10315 PROFESSIONAL CIR,RENO,NV,89521,39.4326357,-119.7578817,,,False
248149,2800 CLEVELAND AVE N,ROSEVILLE,MN,55113,45.0251972,-93.1856013,,,False
058467,13701 RIVERSIDE DR,SHERMAN OAKS,CA,91423,34.157692,-118.431382,,,False
287037,825 22ND ST,FAIRBURY,NE,68352,40.1567597,-97.1742974,,,False
237180,20245 W 12 MILE RD,SOUTHFIELD,MI,48076,42.5018076,-83.2446001,,,False
059159,1555 TENNESSEE ST,VALLEJO,CA,94590,38.1097079,-122.2397665,,,False
058463,2252 BEVERLY BLVD,LOS ANGELES,CA,90057,34.0672471,-118.2718276,,,False
527018,901 MINERAL POINT AVE,JANESVILLE,WI,53548,42.6867419,-89.0354091,,,False
237268,803 W BIG BEAVER RD,TROY,MI,48084,42.5622362,-83.1621083,,,False
117021,601 BROAD STREET SE,GAINESVILLE,GA,30501,34.3009661,-83.8207987,,,False
337107,1 CROSFIELD AVE,WEST NYACK,NY,10994,41.0923849,-73.9785422,,,False
058469,2377 W FOOTHILL BLVD,UPLAND,CA,91786,34.1068003,-117.6828848,,,False
187104,2100 NICHOLASVILLE RD,LEXINGTON,KY,40503,38.0107876,-84.5163804,,,False
267064,5506 CORPORATE DR,SAINT JOSEPH,MO,64507,39.7550464,-94.7648341,,,False
217121,4481 FORBES BLVD,LANHAM,MD,20706,38.9508488,-76.83089269999999,38.9508488,-76.83089269999999,True
397125,150 MONUMENT RD,BALA CYNWYD,PA,19004,40.0113726,-75.2176827,40.0113726,-75.2176827,True
679737,932 SOUTH MISSOURI,MERCEDES,TX,78570,26.142656,-97.9145204,,,False
227514,90 MADISON ST,WORCESTER,MA,01608,42.2582398,-71.8018953,,,False
317045,105 COLLEGE ROAD EAST,PRINCETON,NJ,08540,40.3583393,-74.6001223,40.3583393,-74.6001223,True
059212,12140 ARTESIA BLVD,ARTESIA,CA,90701,33.8727767,-118.073298,,,False
679783,1507 LOVELAND DR,ARLINGTON,TX,76018,32.6441075,-97.0843254,,,False
237742,7125 ORCHARD LAKE RD,WEST BLOOMFIELD,MI,48322,42.5361688,-83.3605524,,,False
059046,2495 E ORANGETHORPE AVE,FULLERTON,CA,92831,33.859776,-117.8892783,,,False
557523,2740 M ST,MERCED,CA,95340,37.3122052,-120.4781218,,,False
059227,2511 W SHAW AVE,FRESNO,CA,93711,36.808148,-119.8409018,,,False
287073,202 HIGH ST,TECUMSEH,NE,68450,40.3797467,-96.1970366,,,False
677052,250 CULLY DR,KERRVILLE,TX,78028,30.0431994,-99.1498436,,,False
109034,7570 NW 14TH ST,MIAMI,FL,33126,25.7856104,-80.3201017,,,False
679790,8330 LBJ FWY,DALLAS,TX,75243,32.9254889,-96.8115084,,,False
059031,15650 DEVONSHIRE ST,GRANADA HILLS,CA,91344,34.2575204,-118.5018398,,,False
059049,5530 CORBIN AVE,TARZANA,CA,91356,34.171631,-118.562098,,,False
057135,6729 N WILLOW AVE,FRESNO,CA,93710,36.834164,-119.72966,,,False
109496,7811 CORAL WAY,MIAMI,FL,33155,25.7488044,-80.3220638,,,False
237758,3456 E 12 MILE RD,WARREN,MI,48092,42.5055066,-83.0715576,,,False
059006,16446 WOODRUFF AVE,BELLFLOWER,CA,90706,33.8891403,-118.1173919,,,False
679752,1700 W GRIFFIN PKWY,MISSION,TX,78572,26.2324685,-98.3433453,,,False
109294,9200 S DADELAND BLVD,MIAMI,FL,33156,25.6841862,-80.3166937,,,False
557569,5451 LA PALMA AVE,LA PALMA,CA,90623,33.8471637,-118.0389232,,,False
377657,316 DEWEY AVE,POTEAU,OK,74953,35.0513406,-94.6207531,,,False
058426,4362 AUBURN BLVD,SACRAMENTO,CA,95841,38.6464487,-121.361825,,,False
059166,4170 VERDUGO RD,LOS ANGELES,CA,90065,34.1264956,-118.2319123,,,False
217156,3120 GRACEFILED ROAD,SILVER SPRINGS,MD,20904,39.0482641,-76.9510112,39.0482641,-76.9510112,True
743100,1201 NORTH WATSON ROAD,ARLINGTON,TX,76006,32.767348,-97.063585,,,False
237743,28592 ORCHARD LAKE RD,FARMINGTON HILLS,MI,48334,42.5061106,-83.3588468,,,False
059086,500 E OLIVE AVE,BURBANK,CA,91501,34.1843537,-118.3045684,,,False
317092,1 CEDAR CREST VILLAGE DRIVE,POMPTON PLAINS,NJ,07444,40.9810807,-74.3254706,40.9810807,-74.3254706,True
679741,35 FARM ROAD 250 SOUTH,HUGHES SPRINGS,TX,75656,32.998462,-94.6307585,32.998462,-94.6307585,True
059204,4130 CAHUENGA BLVD 230,TOLUCA LAKE,CA,91602,34.14488,-118.3611346,34.14488,-118.3611346,True
227403,770 CONVERSE ST,LONGMEADOW,MA,01106,42.0639853,-72.5521444,,,False
059116,3580 WILSHIRE BLVD,LOS ANGELES,CA,90010,34.061646,-118.3029771,,,False
677734,5324 E US HIGHWAY 83,RIO GRANDE CITY,TX,78582,26.3547023,-98.7720276,,,False
059004,16430 VENTURA BLVD,ENCINO,CA,91436,34.1572829,-118.4908949,,,False
059167,163 W ARROW HWY,GLENDORA,CA,91740,34.1066892,-117.8654429,34.1066892,-117.8654429,True
743194,1560 W BAY AREA BLVD,FRIENDSWOOD,TX,77546,29.5390923,-95.1500956,,,False
368190,855 S SUNBURY RD,WESTERVILLE,OH,43081,40.1027432,-82.8884861,,,False
109112,12905 SW 42ND ST,MIAMI,FL,33175,25.7300531,-80.4041866,,,False
237674,28021 SOUTHFIELD RD,LATHRUP VILLAGE,MI,48076,42.5019575,-83.2225605,,,False
747018,2440 TEXAS PKWY,MISSOURI CITY,TX,77489,29.5926805,-95.526688,,,False
297109,6236 W DESERT INN RD,LAS VEGAS,NV,89146,36.1301908,-115.1893191,,,False
247104,2680 ARTHUR ST,ROSEVILLE,MN,55113,45.0223326,-93.1802729,,,False
109077,4345 SW 72 AVE,MIAMI,FL,33155,25.7297917,-80.3104822,25.7297917,-80.3104822,True
058415,2700 ZANKER RD,SAN JOSE,CA,95134,37.3914081,-121.9256536,,,False
059161,12501 CHANDLER BLVD,VALLEY VILLAGE,CA,91607,34.16877,-118.405394,,,False
058405,869 LINDAWOOD ST,NEWBURY PARK,CA,91320,34.1795684,-118.9015166,,,False
257127,4200 MAMIE ST,HATTIESBURG,MS,39402,31.319744,-89.3498842,,,False
108480,7220 BENEVA RD,SARASOTA,FL,34238,27.251206,-82.497676,,,False
059171,11434 VANOWEN ST,NORTH HOLLYWOOD,CA,91605,34.1938549,-118.380402,,,False
167295,4328 114TH ST,URBANDALE,IA,50322,41.6419377,-93.7752912,,,False
217072,2300 DULANEY VALLEY RD,TIMONIUM,MD,21093,39.4594777,-76.5979505,,,False
377718,7512 BROADWAY EXT,OKLAHOMA CITY,OK,73116,35.5485145,-97.5130911,35.5485145,-97.5130911,True
307009,536 COTTAGE ST,LITTLETON,NH,03561,44.2913579,-71.7690164,,,False
059200,7851 WALKER ST,LA PALMA,CA,90623,33.8486704,-118.0371541,,,False
109480,10516 W FLAGLER ST,MIAMI,FL,33174,25.7684788,-80.3669836,,,False
227503,222 MERRIMAC STREET,NEWBURYPORT,MA,01950,42.8163153,-70.8800541,,,False
747050,3334 BROADWAY BLVD,GARLAND,TX,75043,32.8745754,-96.6168521,,,False
427049,1836 W GEORGIA RD,SIMPSONVILLE,SC,29680,34.7101239,-82.3128114,,,False
743135,7600 W TIDWELL RD,HOUSTON,TX,77040,29.851683,-95.504782,,,False
109013,3475 SHERIDAN STREET,HOLLYWOOD,FL,33021,26.0335025,-80.1789906,,,False
747367,1201 N WATSON RD,ARLINGTON,TX,76006,32.767348,-97.063585,,,False
743126,6501 NICOLE WAY,ARLINGTON,TX,76002,32.6418475,-97.1007286,,,False
747029,4401 N 22ND ST,MCALLEN,TX,78504,26.24438,-98.237039,,,False
747065,6233 EVERS RD,SAN ANTONIO,TX,78238,29.4953329,-98.6061142,,,False
679762,147 N COLLEGIATE DR,PARIS,TX,75460,33.6621514,-95.5256851,,,False
109033,10621 AIRPORT PULLING ROAD N,NAPLES,FL,34109,26.2695971,-81.7704981,26.2695971,-81.7704981,True
679744,1110 KINGWOOD DR,KINGWOOD,TX,77339,30.044696,-95.2047781,,,False
743106,3000 N TAYLOR RD,MCALLEN,TX,78501,26.237541,-98.273083,,,False
147583,1515 E LAKE ST,HANOVER PARK,IL,60133,41.9886601,-88.1458527,,,False
297155,700 E SILVERADO RANCH BLVD,LAS VEGAS,NV,89183,36.0137079,-115.1463762,36.0137079,-115.1463762,True
109120,8323NW12TH ST 100,DORAL,FL,33126,25.778647,-80.2962385,25.778647,-80.2962385,True
059216,6101 CHERRY AVE,FONTANA,CA,92336,34.142381,-117.4864562,,,False
059135,1012 E COLORADO ST,GLENDALE,CA,91205,34.1425581,-118.24275,,,False
368247,28315 KENSINGTON LANE,PERRYSBURG,OH,43551,41.5631875,-83.5910912,41.5631875,-83.5910912,True
237771,14650 W WARREN AVE,DEARBORN,MI,48126,42.3438664,-83.1871738,,,False
417000,7260 POST RD,NORTH KINGSTOWN,RI,02852,41.5998838,-71.4544136,,,False
368199,4320 MAYFIELD RD,SOUTH EUCLID,OH,44121,41.520491,-81.5242884,,,False
148001,640 E SAINT CHARLES RD,CAROL STREAM,IL,60188,41.8973966,-88.101759,,,False
477007,7 ALBERT CREE DR,RUTLAND,VT,05701,43.5990121,-72.9542283,,,False
227504,750 W CENTER ST,WEST BRIDGEWATER,MA,02379,42.0106551,-71.052984,,,False
307031,101 BOULDER POINT DR,PLYMOUTH,NH,03264,43.7688168,-71.7397583,,,False
297170,3017 W CHARLESTON BLVD,LAS VEGAS,NV,89102,36.1587992,-115.1820927,,,False
157430,798 N 16TH ST,NEW CASTLE,IN,47362,39.93986,-85.364959,,,False
117069,600 CHANDLER ST,HARTWELL,GA,30643,34.3617064,-82.9351639,,,False
057497,3250 WILSHIRE BLVD,LOS ANGELES,CA,90010,34.0616212,-118.2934149,,,False
059173,650 W DUARTE RD,ARCADIA,CA,91007,34.1263736,-118.0522483,,,False
267185,1422 S SAM HOUSTON BLVD,HOUSTON,MO,65483,37.3121199,-91.9606443,,,False
477003,600 GRANGER RD,BARRE,VT,05641,44.2141951,-72.5615049,,,False
227101,200 MILL ROAD,FAIRHAVEN,MA,02719,41.6506295,-70.8813199,,,False
267612,926 HEMSATH RD,SAINT CHARLES,MO,63303,38.7555231,-90.5375677,,,False
367076,575 OTTAWA GLANDORF RD,OTTAWA,OH,45875,41.022024,-84.064042,,,False
059221,1935 CHICAGO AVE,RIVERSIDE,CA,92507,33.9941057,-117.348525,,,False
307021,4 ALUMNI DR,EXETER,NH,03833,42.9847779,-70.9328337,,,False
307000,30 PILLSBURY ST,CONCORD,NH,03301,43.191865,-71.534061,,,False
457761,4310 BUFFALO GAP RD,ABILENE,TX,79606,32.4008404,-99.7623457,,,False
477000,1110 PRIM RD,COLCHESTER,VT,05446,44.5383959,-73.2462362,,,False
047087,501 E SHERMAN,HARRISON,AR,72601,36.240905,-93.101637,,,False
157015,400 8TH AVE,TERRE HAUTE,IN,47804,39.48483,-87.412659,,,False
067463,8865 LONGS PEAK CIR,WINDSOR,CO,80550,40.4376767,-104.9487038,,,False
397083,4259 W SWAMP RD,DOYLESTOWN,PA,18902,40.3293811,-75.1307468,,,False
059185,805 E BROADWAY,GLENDALE,CA,91205,34.1464027,-118.24541,,,False
747098,5227 READING RD,ROSENBERG,TX,77471,29.5526183,-95.773546,,,False
047338,30 RYAN RD,COTTER,AR,72626,36.2854785,-92.5145071,,,False
147450,106 N EAST ST,CAMBRIDGE,IL,61238,41.3029091,-90.1943942,,,False
267246,35629 HIGHWAY 72,SALEM,MO,65560,37.6604427,-91.5692287,37.6604427,-91.5692287,True
239064,26771 W 12 MILE RD,SOUTHFIELD,MI,48034,42.5003713,-83.3116567,,,False
239146,G 5245 WEST PIERSON RD 1,FLUSHING,MI,48433,43.0598774,-83.78209,43.0598774,-83.78209,True
267069,2303 S HIGHWAY 65,MARSHALL,MO,65340,39.0908148,-93.2133345,39.0908148,-93.2133345,True
147694,5 BROADWAY PLAZA,SPARTA,IL,62286,38.12344410000001,-89.7015479,38.12344410000001,-89.7015479,True
167077,402 2ND AVE SE,CRESCO,IA,52136,43.3711851,-92.1113015,,,False
267160,921 E 34TH ST,JOPLIN,MO,64804,37.0509404,-94.5040438,,,False
347185,1007 LEXINGTON AVE,THOMASVILLE,NC,27360,35.882086,-80.1046428,,,False
059133,4195 VALLEY FAIR ST,SIMI VALLEY,CA,93063,34.2725723,-118.7131326,,,False
057053,74 N PASADENA AVE,PASADENA,CA,91103,34.1470349,-118.1540505,,,False
557037,1830 CALIFORNIA AVE,CORONA,CA,92881,33.8581182,-117.5391341,,,False
057794,12254 BELLFLOWER BLVD,DOWNEY,CA,90242,33.9214348,-118.1246542,,,False
057799,17542 17TH ST,TUSTIN,CA,92780,33.759045,-117.8260804,,,False
109056,6720 TAFT ST,HOLLYWOOD,FL,33024,26.0244365,-80.2227354,,,False
197206,200 WEST 134TH PLACE,CUT OFF,LA,70345,29.4565373,-90.3117681,,,False
267282,4601 HIGHWAY MM,HANNIBAL,MO,63401,39.7029875,-91.4354204,39.7029875,-91.4354204,True
187044,1953 SCOTTSVILLE RD,BOWLING GREEN,KY,42104,36.9635344,-86.4312936,,,False
239079,4045 W 13 MILE RD,ROYAL OAK,MI,48073,42.517514,-83.1980492,,,False
297096,2865S JONES BLVD,LAS VEGAS,NV,89146,36.1372768,-115.2256326,36.1372768,-115.2256326,True
477010,161 SHERMAN DR,ST JOHNSBURY,VT,05819,44.447444,-72.0127399,,,False
058049,6404 WILSHIRE BLVD,LOS ANGELES,CA,90048,34.0636867,-118.3684773,,,False
058078,2525 CHERRY AVE,SIGNAL HILL,CA,90755,33.8029648,-118.1674997,,,False
367569,660 LINCOLN AVE,CINCINNATI,OH,45206,39.1329534,-84.493254,,,False
117306,7290 N LAKE DR,COLUMBUS,GA,31909,32.5042307,-84.9618605,,,False
679186,3721 BRIARPARK DR,HOUSTON,TX,77042,29.723528,-95.5489793,,,False
157230,3536 WASHINGTON BLVD,INDIANAPOLIS,IN,46205,39.8788753,-86.1524122,,,False
058056,611 S CATALINA ST,LOS ANGELES,CA,90005,34.0633115,-118.2954634,,,False
327126,2293 DIVOT AVE,LAS CRUCES,NM,88001,32.3143284,-106.7537234,,,False
058111,266 MONTEREY RD,SOUTH PASADENA,CA,91030,34.1113696,-118.170744,,,False
377206,407 E CHEROKEE AVE,MCALESTER,OK,74501,34.9289531,-95.7652661,,,False
377724,4519 S PARK DR,BROKEN BOW,OK,74728,34.0260569,-94.7395856,,,False
747110,1006 E 6TH ST,ALICE,TX,78332,27.7560096,-98.066619,,,False
017091,1207 STATE ST,GREENSBORO,AL,36744,32.6986882,-87.5845086,,,False
747323,811 SOUTH CENTRAL EXPRESSWAY,RICHARDSON,TX,75080,32.9411435,-96.7452601,,,False
109065,10250 SW 56TH ST,MIAMI,FL,33165,25.7152441,-80.3602809,,,False
157611,2834 45TH ST.,HIGHLAND,IN,46322,41.5373978,-87.4611039,,,False
377734,425 W WILSHIRE BLVD,OKLAHOMA CITY,OK,73116,35.5512039,-97.5212867,,,False
157536,303 E 89TH AVE,MERRILLVILLE,IN,46410,41.4571482,-87.3313834,,,False
059102,2149 E GARVEY AVE N,WEST COVINA,CA,91791,34.0725382,-117.8999013,,,False
247168,501 S MAPLE ST,WACONIA,MN,55387,44.844492,-93.790644,,,False
239018,12815 NORTHLINE RD,SOUTHGATE,MI,48195,42.2135238,-83.1824369,,,False
237796,2035 HOGBACK RD,ANN ARBOR,MI,48105,42.2592163,-83.6804133,,,False
117309,906 5TH STREET NORTH SUITE F6,CORDELE,GA,31015,31.977913,-83.778966,31.977913,-83.778966,True
417061,433 ELMWOOD AVE,PROVIDENCE,RI,02907,41.800322,-71.426729,,,False
557490,596N LAKE AVE 100,PASADENA,CA,91101,34.1563093,-118.132132,34.1563093,-118.132132,True
747313,10707 FUQUA GLEN LN,HOUSTON,TX,77075,29.6102595,-95.2558682,,,False
377726,900 E HARTFORD AVE,PONCA CITY,OK,74601,36.7240337,-97.0737341,,,False
557791,801 W VALLEY BLVD,ALHAMBRA,CA,91803,34.078147,-118.131899,,,False
557763,11829 SOUTH ST,CERRITOS,CA,90703,33.8585429,-118.0811681,,,False
057495,270 W BADILLO ST,COVINA,CA,91723,34.0862071,-117.8937844,,,False
447408,800 SOUTH JAMES CAMPBELL BLVD,COLUMBIA,TN,38401,35.59726,-87.057843,,,False
557038,124 S COLLEGE DR,SANTA MARIA,CA,93454,34.9545062,-120.4248876,,,False
059100,3550 WILSHIRE BLVD,LOS ANGELES,CA,90010,34.061646,-118.302929,,,False
527001,11333W NATIONAL AVE,WEST ALLIS,WI,53227,42.9894466,-88.0533522,42.9894466,-88.0533522,True
527302,931 DISCOVERY RD,GREEN BAY,WI,54311,44.4842511,-87.9253086,,,False
679177,412 S KAUFMAN ST,NEWTON,TX,75966,30.8491919,-93.7616129,,,False
197240,1821 FRANKLIN AVE,GRETNA,LA,70053,29.9201148,-90.0496974,,,False
557740,8671 WILSHIRE BLVD,BEVERLY HILLS,CA,90211,34.066358,-118.380562,,,False
377733,2448 E 81ST ST,TULSA,OK,74137,36.042795,-95.9534996,,,False
077200,14 WESTPORT AVE,NORWALK,CT,06851,41.120879,-73.4061421,41.120879,-73.4061421,True
747330,1003 S VIRGINIA ST,TERRELL,TX,75160,32.7280231,-96.2766919,,,False
557005,1718 E ARTESIA BLVD,LONG BEACH,CA,90805,33.8745495,-118.1716433,,,False
109207,7552 NAVARRE PARKWAY,NAVARRE,FL,32566,30.4037634,-86.9061387,,,False
557684,1128 E ROUTE 66,GLENDORA,CA,91740,34.1286555,-117.8459376,,,False
058053,1815 E WORKMAN AVE,WEST COVINA,CA,91791,34.0755834,-117.9070711,,,False
239034,29698 DEQUINDRE RD,WARREN,MI,48092,42.5110141,-83.0857665,,,False
217131,5901 HOLABIRD AVE,BALTIMORE,MD,21224,39.27198,-76.545113,,,False
059010,253 GRANADA DR D,SAN LUIS OBISPO,CA,93401,35.2509726,-120.6669701,35.2509726,-120.6669701,True
347179,2920 HIGHWOODS BLVD,RALEIGH,NC,27604,35.8199652,-78.6022605,,,False
447201,123 PICKWICK STREET,SAVANNAH,TN,38372,35.2264117,-88.2459975,,,False
337436,4770 WHITE PLAINS RD 2,BRONX,NY,10470,40.9052976,-73.84903709999999,40.9052976,-73.84903709999999,True
239013,2200 N CANTON CENTER RD,CANTON,MI,48187,42.3179965,-83.4875973,,,False
357014,2401 DEMERS AVE,GRAND FORKS,ND,58201,47.916059,-97.0611077,,,False
287101,2319 N LINCOLN AVE,YORK,NE,68467,40.8844973,-97.5928487,,,False
368246,14077 CEDAR RD,SOUTH EUCLID,OH,44118,41.5016691,-81.5332272,,,False
239017,4415 METROPOLITAN PKWY,STERLING HEIGHTS,MI,48310,42.564883,-83.0654697,,,False
239032,3501 LAKE EASTBROOK BLVD SE,GRAND RAPIDS,MI,49546,42.9178975,-85.5800364,,,False
059178,644 W BROADWAY,GLENDALE,CA,91204,34.1466971,-118.268623,,,False
227513,1 KIDDIE DR,AVON,MA,02322,42.1301504,-71.0571849,,,False
557514,10550 SEPULVEDA BLVD,MISSION HILLS,CA,91345,34.2624584,-118.4669231,,,False
059165,3314 W BURBANK BLVD,BURBANK,CA,91505,34.1755934,-118.3468389,34.1755934,-118.3468389,True
107725,1000 RIVERSIDE AVE,JACKSONVILLE,FL,32204,30.3141397,-81.6779846,,,False
147416,2300 WARRENVILLE RD,DOWNERS GROVE,IL,60515,41.8071707,-88.0387262,,,False
109449,5800 NW 39TH AVE,GAINESVILLE,FL,32606,29.6887284,-82.390085,,,False
747296,313 W VILLAGE BLVD,LAREDO,TX,78041,27.5661001,-99.4966901,,,False
227510,1778 WASHINGTON ST,STOUGHTON,MA,02072,42.0973375,-71.0952177,,,False
059499,1200S DIAMOND BAR BLVD 213,DIAMOND BAR,CA,91765,34.0004384,-117.8107827,34.0004384,-117.8107827,True
109458,630 N MAITLAND AVE,MAITLAND,FL,32751,28.6336379,-81.3655874,,,False
109244,10 FAIRWAY DR,DEERFIELD BEACH,FL,33441,26.3187071,-80.1104734,,,False
447131,1101 NEAL ST,COOKEVILLE,TN,38501,36.1451766,-85.4826291,,,False
109167,2555 COLLINS AVE,MIAMI BEACH,FL,33140,25.8017513,-80.1257004,,,False
747061,434 PARK GROVE LN,KATY,TX,77450,29.7789641,-95.7503503,29.7789641,-95.7503503,True
747341,1904 E GRIFFIN PKWY,MISSION,TX,78572,26.2255072,-98.2938936,,,False
109177,8961 HYPOLUXO RD,LAKE WORTH,FL,33467,26.5681598,-80.1884219,26.5681598,-80.1884219,True
157124,1720 LAFAYETTE RD,CRAWFORDSVILLE,IN,47933,40.0674617,-86.9050709,40.0674617,-86.9050709,True
377667,403 W CARL ALBERT PKWY,MCALESTER,OK,74501,34.934988,-95.7758547,,,False
247282,2429 UNIVERSITY AVE W,SAINT PAUL,MN,55114,44.9648033,-93.1988689,,,False
377090,901 E VAN BUREN AVE,MCALESTER,OK,74501,34.936002,-95.748403,,,False
679167,6500 WEST FWY,FORT WORTH,TX,76116,32.735543,-97.4290822,,,False
747095,3500 W DAVIS ST,CONROE,TX,77304,30.322454,-95.488606,,,False
197426,1008 JULIA ST,RAYVILLE,LA,71269,32.472763,-91.7590709,,,False
247137,520 1ST ST NE,SARTELL,MN,56377,45.6170957,-94.1899108,,,False
067161,1000 W 8TH AVE,YUMA,CO,80759,40.1200338,-102.7370081,,,False
059054,187 E WILBUR RD,THOUSAND OAKS,CA,91360,34.1860393,-118.8708341,,,False
057657,5805 SEPULVEDA BLVD,VAN NUYS,CA,91411,34.1759266,-118.4662691,,,False
747254,1505 CALLE DEL NORTE,LAREDO,TX,78041,27.5561723,-99.4812037,,,False
059009,1525 MCCARTHY BLVD,MILPITAS,CA,95035,37.407162,-121.919983,,,False
059158,415 E HARVARD ST,GLENDALE,CA,91205,34.1447152,-118.2506136,,,False
148027,3590 HOBSON RD,WOODRIDGE,IL,60517,41.7598329,-88.0697065,,,False
239272,33060 NORTHWESTERN HWY,WEST BLOOMFIELD,MI,48322,42.528967,-83.3593614,,,False
109330,10689 NORTH KENDALL DRIVE,MIAMI,FL,33176,25.6874272,-80.3654302,,,False
747278,15415 WAUMSLEY WAY,SUGAR LAND,TX,77498,29.6743754,-95.6597426,29.6743754,-95.6597426,True
109400,6971 N FEDERAL HWY,BOCA RATON,FL,33487,26.3874051,-80.0764527,,,False
148098,1000 N MILWAUKEE AVE,CHICAGO,IL,60642,41.900127,-87.661601,,,False
077250,567 NEW PARK AVE,WEST HARTFORD,CT,06110,41.7426109,-72.7166322,,,False
109387,8603 S. DIXIE HWY,PINECREST,FL,33156,25.6902179,-80.306007,,,False
239054,31868 NORTHWESTERN HWY,FARMINGTON HILLS,MI,48334,42.5208935,-83.3438652,,,False
059256,1616 VICTORY BLVD,GLENDALE,CA,91201,34.1599303,-118.2992792,,,False
239108,20600 EUREKA RD,TAYLOR,MI,48180,42.1988274,-83.236611,,,False
059233,221 W ALAMEDA AVE,BURBANK,CA,91502,34.1687851,-118.3059895,,,False
368266,2700 E DUBLIN GRANVILLE RD,COLUMBUS,OH,43231,40.0847265,-82.9457951,,,False
059271,6501 FOOTHILL BLVD,TUJUNGA,CA,91042,34.245017,-118.273359,,,False
059139,212 N GLENDALE AVE,GLENDALE,CA,91206,34.148429,-118.2462171,,,False
109338,11300 4TH ST N,ST PETERSBURG,FL,33716,27.87402,-82.638878,,,False
037264,2505 HUALAPAI MOUNTAIN RD,KINGMAN,AZ,86401,35.1916317,-114.0194901,,,False
109361,6107 MEMORIAL HWY,TAMPA,FL,33615,27.974086,-82.550283,,,False
377048,4401 W MEMORIAL RD,OKLAHOMA CITY,OK,73134,35.610342,-97.600737,,,False
297164,8760 S MARYLAND PKWY,LAS VEGAS,NV,89123,36.0305628,-115.1362605,,,False
109332,5575S SEMORAN BLVD 38,ORLANDO,FL,32822,28.4817939,-81.3073835,28.4817939,-81.3073835,True
287052,825 CENTENNIAL DR,CHADRON,NE,69337,42.8225405,-103.0142773,,,False
347206,729 VINEYARDS XING,LEXINGTON,NC,27295,35.8396294,-80.2848686,,,False
377418,1801 W 3RD ST,ELK CITY,OK,73644,35.4137342,-99.4257911,,,False
148131,7370 N LINCOLN AVE,LINCOLNWOOD,IL,60712,41.9976978,-87.7191464,,,False
109108,4760 E STATE ROAD 64,BRADENTON,FL,34208,27.4959693,-82.5034465,27.4959693,-82.5034465,True
117062,475 REED RD,DALTON,GA,30720,34.8024245,-84.9738779,,,False
317093,3000 ESSEX RD,TINTON FALLS,NJ,07753,40.2247085,-74.090213,,,False
147937,1580 N NORTHWEST HWY,PARK RIDGE,IL,60068,42.0344284,-87.8644485,,,False
747266,310 E-I30,GARLAND,TX,75043,32.8476744,-96.5747855,32.8476744,-96.5747855,True
059342,2116 WILSHIRE BLVD,SANTA MONICA,CA,90403,34.0320789,-118.4820322,,,False
059187,22148 SHERMAN WAY,CANOGA PARK,CA,91303,34.2009265,-118.6091888,,,False
557068,4501 BROADWAY,OAKLAND,CA,94611,37.8336012,-122.2541238,,,False
239158,6751 DIXIE HWY,CLARKSTON,MI,48346,42.7204325,-83.4192187,42.7204325,-83.4192187,True
047083,2843 PRINCE STREET,CONWAY,AR,72034,35.092199,-92.469808,,,False
058301,924 BUENA VISTA ST,DUARTE,CA,91010,34.1418332,-117.977447,,,False
117023,618 ORANGE ST,MACON,GA,31201,32.8369576,-83.6385932,,,False
557012,200 MUIR RD,MARTINEZ,CA,94553,37.9925517,-122.1104255,,,False
307013,186 WAUKEWAN ST,MEREDITH,NH,03253,43.6430656,-71.5247685,,,False
059147,209E ALAMEDA AVE 203,BURBANK,CA,91502,34.1847406,-118.290032,34.1847406,-118.290032,True
387007,2701 NW VAUGHN ST,PORTLAND,OR,97210,45.5374778,-122.7079451,,,False
239087,27680 FRANKLIN RD,SOUTHFIELD,MI,48034,42.4914132,-83.2972465,,,False
059120,21800 OXNARD ST,WOODLAND HILLS,CA,91367,34.1786994,-118.6028411,,,False
047030,709 E 8TH AVE,PINE BLUFF,AR,71601,34.2217968,-91.9974605,,,False
239123,26160 VAN DYKE AVE,CENTER LINE,MI,48015,42.485599,-83.0274302,,,False
059257,1711 W TEMPLE ST,LOS ANGELES,CA,90026,34.0694226,-118.2636071,,,False
109509,6003 HONORE AVE,SARASOTA,FL,34238,27.2667155,-82.464138,,,False
459303,10803 GULFDALE ST,SAN ANTONIO,TX,78216,29.539197,-98.4913252,,,False
507034,380 CHASE AVE,WALLA WALLA,WA,99362,46.06057269999999,-118.3415509,46.06057269999999,-118.3415509,True
147088,1501 MCPHERSON AVE,MOUNT VERNON,IL,62864,38.323053,-88.908747,,,False
047306,110 E GAINES ST,MONTICELLO,AR,71655,33.6287603,-91.7903366,33.6287603,-91.7903366,True
527159,231A KEEL CT,STURGEON BAY,WI,54235,44.8075687,-87.3780559,,,False
109485,4901 NW 17TH WAY,FORT LAUDERDALE,FL,33309,26.187566,-80.165753,,,False
227523,1707 GAR HWY,SWANSEA,MA,02777,41.7576139,-71.2460493,,,False
467250,1133 N MAIN ST,LAYTON,UT,84041,41.0768173,-111.9841541,41.0768173,-111.9841541,True
207051A,43 SOUTH LUBEC ROAD,LUBEC,ME,04652,44.8459807,-66.9993658,,,False
527113,239 TROWBRIDGE DR,FOND DU LAC,WI,54937,43.7452587,-88.4780665,,,False
109269,8660 COLLEGE PARKWAY,FORT MYERS,FL,33919,26.5572945,-81.8984954,26.5572945,-81.8984954,True
527184,4639 HAMMERSLEY RD,MADISON,WI,53711,43.038971,-89.4591281,,,False
237172,22500 METRO PKWY,CLINTON TOWNSHIP,MI,48035,42.569374,-82.890635,,,False
368322,5333 NORTHFIELD RD,BEDFORD HEIGHTS,OH,44146,41.4254658,-81.5266547,,,False
109406,7411 114TH AVE,LARGO,FL,33773,27.8762449,-82.741242,,,False
077097A,32 S MAIN ST,PUTNAM,CT,06260,41.9138684,-71.9071015,41.9138684,-71.9071015,True
237405,100 E MICHIGAN AVE,JACKSON,MI,49201,42.2480447,-84.4054719,,,False
059213,4741 LAUREL CANYON BLVD,VALLEY VILLAGE,CA,91607,34.1565644,-118.3965806,,,False
239070,30600 NORTHWESTERN HWY,FARMINGTON HILLS,MI,48334,42.5120151,-83.3273864,,,False
109143,1501 CORPORATE DR,BOYNTON BEACH,FL,33426,26.5109555,-80.077895,,,False
457656,1700 COGDELL BLVD,SNYDER,TX,79549,32.6874145,-100.9173067,,,False
527177,619 N 35TH ST,MILWAUKEE,WI,53208,43.0380909,-87.9581048,,,False
137068,929 NW 16TH ST,FRUITLAND,ID,83619,44.0252772,-116.9249943,,,False
017171,1015 1ST AVE SW,CULLMAN,AL,35055,34.1659848,-86.8358647,,,False
107614,5650 BRECKENRIDGE PARK DR,TAMPA,FL,33610,27.9973935,-82.359966,,,False
109383,13335 SW 124TH ST,MIAMI,FL,33186,25.6529039,-80.4110391,,,False
148235,195 N HARBOR DRIVE,CHICAGO,IL,60601,41.8856718,-87.614711,,,False
109505,12855 SW 132ND ST,MIAMI,FL,33186,25.6458292,-80.4025918,,,False
747141,1700 ALMA DR,PLANO,TX,75075,33.023135,-96.716266,,,False
109290,13595 SW 134TH AVE,MIAMI,FL,33186,25.6417651,-80.410154,,,False
398100,8765 STENTON AVE,WYNDMOOR,PA,19038,40.0746657,-75.1916802,,,False
239055,5901 CHASE RD 210,DEARBORN,MI,48126,42.3321365,-83.1864238,42.3321365,-83.1864238,True
157158,950 N MERIDIAN ST,INDIANAPOLIS,IN,46204,39.7807424,-86.1589993,,,False
747327,777 SOUTH CENTRAL EXPRESSWAY,RICHARDSON,TX,75080,32.9425779,-96.7432233,,,False
239107,739 E 12 MILE RD,MADISON HEIGHTS,MI,48071,42.5049699,-83.0996874,,,False
227520,35 WINTER ST,HYANNIS,MA,02601,41.6528525,-70.2865432,,,False
109324,4121 NW 5TH ST,PLANTATION,FL,33317,26.128375,-80.2034384,,,False
059129,735 TANK FARM RD 135,SAN LUIS OBISPO,CA,93401,35.2481212,-120.6415459,35.2481212,-120.6415459,True
317079,972 SHOPPES BLVD,NORTH BRUNSWICK,NJ,08902,40.4605443,-74.45571199999999,40.4605443,-74.45571199999999,True
747217,4304 HARE ST,HOUSTON,TX,77020,29.7691728,-95.327464,,,False
458129,1805 RUTHERFORD LN,AUSTIN,TX,78754,30.3358915,-97.6810903,,,False
679327,4700 E UNIVERSITY BLVD,ODESSA,TX,79762,31.8800855,-102.326784,,,False
017116,500 HOSPITAL DR,WETUMPKA,AL,36092,32.5526513,-86.1861954,,,False
239074,16250 NORTHLAND DR,SOUTHFIELD,MI,48075,42.4449803,-83.2107918,,,False
037192,1380 S CASTLE DOME AVE,YUMA,AZ,85365,32.701928,-114.6075121,,,False
109488,1111 PARK CENTRE BLVD,MIAMI GARDENS,FL,33169,25.9297121,-80.219938,,,False
239113,29226 ORCHARD LAKE RD,FARMINGTON HILLS,MI,48334,42.5115843,-83.3591473,,,False
059207,23361 EL TORO RD,LAKE FOREST,CA,92630,33.6239626,-117.6970983,,,False
067295,401 KENDALL DRIVE,LAMAR,CO,81052,38.0702066,-102.6108103,,,False
679474,2300 GREENHILL DR.,ROUND ROCK,TX,78664,30.5335872,-97.6812868,,,False
148091,2622 W PETERSON AVE,CHICAGO,IL,60659,41.9906833,-87.6955207,,,False
327208,189 HOWARD PLACE,LAS CRUCES,NM,88011,32.3252396,-106.7332145,,,False
377574,750 E MAIN ST,TISHOMINGO,OK,73460,34.2307194,-96.6705072,,,False
109502,1620 W. OAKLAND PARK BLVD.,OAKLAND PARK,FL,33311,26.1663188,-80.1535678,,,False
059304,640 S SUNSET AVE,WEST COVINA,CA,91790,34.0698181,-117.9374179,,,False
227027,62 CENTER ST,FAIRHAVEN,MA,02719,41.6366343,-70.9010183,,,False
267618,700 NW ARGOSY PKWY,RIVERSIDE,MO,64150,39.16376,-94.617802,,,False
297186,6767 W CHARLESTON BLVD,LAS VEGAS,NV,89146,36.1579717,-115.2421719,,,False
017089,5788 AL HIGHWAY 157,CULLMAN,AL,35058,34.3203835,-87.0004486,,,False
397272,1409 N MARKET ST,BERWICK,PA,18603,41.0671967,-76.2462913,,,False
747486,8833 TALTON ST,HOUSTON,TX,77078,29.8440045,-95.2607772,,,False
747573,801 E CAMPBELL RD,RICHARDSON,TX,75081,32.9761063,-96.7103708,,,False
109607,723 E COLONIAL DR,ORLANDO,FL,32803,28.5532675,-81.3682532,,,False
747291,9535 FOREST LN,DALLAS,TX,75243,32.9111977,-96.7292258,,,False
747267,17430 CAMPBELL RD,DALLAS,TX,75252,32.9906924,-96.806736,,,False
059415,9320 BASELINE RD,RANCHO CUCAMONGA,CA,91701,34.121625,-117.6019945,,,False
747269,5205 AZTEC DR,THE COLONY,TX,75056,33.0812923,-96.8791657,,,False
148151,1315 MACOM DR,NAPERVILLE,IL,60564,41.7309015,-88.2078261,,,False
307017,7 EXECUTIVE PARK DRIVE,MERRIMACK,NH,03054,42.843256,-71.4969237,,,False
417067,95 CEDAR ST,PROVIDENCE,RI,02903,41.8244332,-71.4207798,,,False
197742,114 NORTH 11TH STREET,OAKDALE,LA,71639,30.8160795,-92.6607322,,,False
347308,705B WESLEY PINES RD,LUMBERTON,NC,28358,34.656728,-78.9978136,,,False
059209,2312 W VICTORY BLVD,BURBANK,CA,91506,34.1837732,-118.3231921,,,False
239143,21701 W 11 MILE RD,SOUTHFIELD,MI,48076,42.4869755,-83.2583995,,,False
367587,250 MANOR DR,PERRYSBURG,OH,43551,41.5536858,-83.6018779,,,False
109388,9380 SW 72ND ST,MIAMI,FL,33173,25.7009287,-80.3459229,,,False
059346,116 N ARTSAKH ST,GLENDALE,CA,91206,34.1467909,-118.2538433,34.1467909,-118.2538433,True
337413,330 CONKLIN ST,FARMINGDALE,NY,11735,40.7325203,-73.4465432,,,False
368151,43 E 4TH ST,MANSFIELD,OH,44902,40.761035,-82.514057,,,False
067449,910 PINON RANCH VW,COLORADO SPRINGS,CO,80907,38.9016942,-104.8443662,38.9016942,-104.8443662,True
747099,3130 GATEWAY BLVD E,EL PASO,TX,79905,31.7775046,-106.4579334,,,False
108002,410 S WARE BLVD,TAMPA,FL,33619,27.9468263,-82.3466421,27.9468263,-82.3466421,True
377011,931 ARLINGTON ST,ADA,OK,74820,34.7816711,-96.6717381,,,False
248110,615 FIRST STREET NORTH,COLD SPRING,MN,56320,45.465131,-94.425833,45.465131,-94.425833,True
037015,525 W BROWN RD,MESA,AZ,85201,33.4334942,-111.8429136,,,False
207075,1028 STILLWATER AVE,BANGOR,ME,04401,44.8424391,-68.7438727,,,False
059236,255N EL CIELO RD C308,PALM SPRINGS,CA,92262,33.8256236,-116.5116763,33.8256236,-116.5116763,True
059258,31080 UNION CITY BLVD,UNION CITY,CA,94587,37.5957608,-122.0803597,,,False
059327,2120 FOOTHILL BLVD,LA VERNE,CA,91750,34.1130644,-117.7647421,,,False
167151,2740 1ST AVE NE,CEDAR RAPIDS,IA,52402,42.0041337,-91.6348653,,,False
459442,2901 WILCREST DR,HOUSTON,TX,77042,29.7326617,-95.571795,,,False
059145,6850 REGIONAL ST,DUBLIN,CA,94568,37.7019294,-121.9336456,,,False
148228,7670 PLAZA CT,WILLOWBROOK,IL,60527,41.7502723,-87.9372708,,,False
377738,700 W FORT WORTH ST,BROKEN ARROW,OK,74012,36.048624,-95.797642,,,False
239144,23370 COMMERCE DR,FARMINGTON HILLS,MI,48335,42.4619351,-83.4280876,,,False
109594,2 S UNIVERSITY DR,PLANTATION,FL,33324,26.1145809,-80.250519,,,False
287137,806 HOGAN DR,PAPILLION,NE,68046,41.1649402,-96.0354639,,,False
307084,213 ROCKINGHAM RD,LONDONDERRY,NH,03053,42.9142577,-71.3891065,,,False
407033,6 CALLE LA CRUZ,JUANA DIAZ,PR,00795,18.0473367,-66.5063697,18.0473367,-66.5063697,True
377400,106 1/2 HARRISON STREET,CUSHING,OK,74023,35.9802896,-96.7713138,35.9802896,-96.7713138,True
239140,30445 NORTHWESTERN HWY,FARMINGTON HILLS,MI,48334,42.5104489,-83.3271602,,,False
673137,1021 E SOUTHEAST LOOP 323,TYLER,TX,75701,32.3029011,-95.2895713,,,False
747339,379 INDUSTRIAL,WILLS POINT,TX,75169,32.7028608,-95.9660096,,,False
507119,10410 E 9TH AVE,SPOKANE VALLEY,WA,99206,47.6486696,-117.2653941,,,False
247124,401 PRAIRIE AVE NE,STAPLES,MN,56479,46.37586,-94.794349,,,False
207021A,10 WATER ST,WATERVILLE,ME,04901,44.5462811,-69.6300491,,,False
239216,31201 CHICAGO RD S,WARREN,MI,48093,42.5224367,-83.021758,,,False
148139,8930 WAUKEGAN RD.,MORTON GROVE,IL,60053,42.0435434,-87.7992923,,,False
059287,14431 HAMLIN ST,VAN NUYS,CA,91401,34.1887497,-118.447259,,,False
167236,1202 21ST AVE,ROCK VALLEY,IA,51247,43.2024225,-96.2837548,,,False
747575,10777 WESTHEIMER RD,HOUSTON,TX,77042,29.7366669,-95.5664281,,,False
239264,26645 W 12 MILE RD,SOUTHFIELD,MI,48034,42.5004074,-83.3103977,,,False
417063,125 SCITUATE AVE,CRANSTON,RI,02921,41.7788038,-71.4803857,,,False
327209,R 401 N HAPPY VALLEY RD,CARLSBAD,NM,88220,32.4337412,-104.293126,,,False
267561,101 SAINT LUKES CENTER DR,CHESTERFIELD,MO,63017,38.6574961,-90.5077042,38.6574961,-90.5077042,True
059219,34 EXECUTIVE PARK 212,IRVINE,CA,92614,33.6862196,-117.859559,33.6862196,-117.859559,True
227516,891 CENTRE ST,JAMAICA PLAIN,MA,02130,42.30919,-71.120444,,,False
109630,4000 S 57TH AVE,GREENACRES,FL,33463,26.614401,-80.135453,,,False
059237,3900 NEWPARK MALL ROAD,NEWARK,CA,94560,37.5250841,-122.0046676,37.5250841,-122.0046676,True
059302,1 N MAIN ST,MILPITAS,CA,95035,37.4307174,-121.9075464,,,False
059452,3333 CONCOURS,ONTARIO,CA,91764,34.074712,-117.5791283,,,False
177274A,922 N 5TH ST,LINCOLN,KS,67455,39.0488545,-98.1496122,,,False
239292,251 N ROSE ST,KALAMAZOO,MI,49007,42.2930653,-85.5849198,,,False
148179,5940 W TOUHY AVE,NILES,IL,60714,42.0120744,-87.7796347,,,False
059217,1325N CENTER ST 2A,STOCKTON,CA,95202,37.9658103,-121.2949354,37.9658103,-121.2949354,True
103186,15190 SW 136TH ST,MIAMI,FL,33196,25.6398547,-80.438617,,,False
337439,337 N MAIN ST,NEW CITY,NY,10956,41.1662934,-73.9889008,,,False
059273,11700 DUBLIN BLVD,DUBLIN,CA,94568,37.7001375,-121.9425003,,,False
059249,2880 ZANKER RD,SAN JOSE,CA,95134,37.3959081,-121.9282788,,,False
747410,"2300 WEST WHITE AVENUE, STE 110",MCKINNEY,TX,75071,33.2092601,-96.6414332,33.2092601,-96.6414332,True
747642,337 OAKS TRAIL,GARLAND,TX,75043,32.8476939,-96.5736168,,,False
297030,2716 N TENAYA WAY,LAS VEGAS,NV,89128,36.209061,-115.2494793,,,False
057755,1155 E MAIN ST,GRASS VALLEY,CA,95945,39.2299745,-121.0492241,,,False
109708,7405 NW 57TH ST,LAUDERHILL,FL,33319,26.19544,-80.2500139,26.19544,-80.2500139,True
227517,270 UNION ST,LYNN,MA,01901,42.4651064,-70.9428828,,,False
747576,1322 SPACE PARK DRIVE,HOUSTON,TX,77058,29.5468754,-95.0971123,,,False
059395,4533 VAN NUYS BLVD,SHERMAN OAKS,CA,91403,34.1538438,-118.4487925,,,False
197086,801 N 31ST ST,MONROE,LA,71201,32.530365,-92.089392,,,False
457596,"1801 NE MUSTANG DR, PERMIAN REGIONAL",ANDREWS,TX,79714,32.338254,-102.5490572,32.338254,-102.5490572,True
187037,135 N HARGIS AVE,MOREHEAD,KY,40351,38.1809678,-83.4369821,,,False
167034,105 S MARSHALL ST,BOONE,IA,50036,42.0564317,-93.8786654,,,False
197312,4722 HWY 311,HOUMA,LA,70360,29.6039387,-90.7666638,29.6039387,-90.7666638,True
267505,2642 STATE ROUTE 76,WILLOW SPRINGS,MO,65793,36.9820132,-91.9904218,36.9820132,-91.9904218,True
248038,312 N TOWER RD,FERGUS FALLS,MN,56537,46.287271,-96.1022927,,,False
457640,2309 S CEDAR ST,PERRYTON,TX,79070,36.3777742,-100.7979362,,,False
507065,1615 75TH ST SW,EVERETT,WA,98203,47.9308339,-122.2595493,,,False
107260,7701 LITTLE RD,NEW PORT RICHEY,FL,34654,28.2688628,-82.6752623,28.2688628,-82.6752623,True
557208,1398 RIDGEWOOD DR,CHICO,CA,95973,39.775172,-121.838744,,,False
027001,4001 DALE ST,ANCHORAGE,AK,99508,61.184314,-149.817698,,,False
077223,444 FOXON RD,EAST HAVEN,CT,06513,41.3234844,-72.84171649999999,41.3234844,-72.84171649999999,True
059335,11755 VICTORY BLVD,NORTH HOLLYWOOD,CA,91606,34.186756,-118.3892992,,,False
397427,900 MANCHESTER RD,FAIRVIEW,PA,16415,42.0682058,-80.2288373,,,False
047004,827 W VINE ST,PARAGOULD,AR,72450,36.0514581,-90.4967042,,,False
107417,450 SE US HIGHWAY 19,CRYSTAL RIVER,FL,34429,28.8915193,-82.58539549999999,28.8915193,-82.58539549999999,True
047167,428 MEDICAL CENTER PKWY,CLINTON,AR,72031,35.5580004,-92.4531358,,,False
747479,7980 ANCHOR DR,PORT ARTHUR,TX,77642,29.9414082,-93.984626,,,False
059351,5435 BALBOA BLVD,ENCINO,CA,91316,34.1694201,-118.5011901,,,False
059323,650 E HOSPITALITY LN,SAN BERNARDINO,CA,92408,34.0661951,-117.2734321,,,False
257111,360 COURTHOUSE RD,GULFPORT,MS,39507,30.3843274,-89.0432413,,,False
187146,4934 SOUTH LAUREL ROAD,LONDON,KY,40744,37.1068099,-84.0720846,,,False
678094,13330 LEOPARD ST,CORPUS CHRISTI,TX,78410,27.8617991,-97.6149619,,,False
167186,2055 KIMBALL AVE,WATERLOO,IA,50702,42.4712515,-92.3568242,,,False
077089,32 UNION ST,WINSTED,CT,06098,41.9221282,-73.0718825,41.9221282,-73.0718825,True
227290,1050 COMMONWEALTH AVE,BOSTON,MA,02215,42.3521194,-71.1225945,,,False
077143,500 BIC DR,MILFORD,CT,06461,41.2193386,-73.1012958,41.2193386,-73.1012958,True
177298,3500 N ROCK RD,WICHITA,KS,67226,37.7480751,-97.2435407,,,False
377487,417 E TAMARACK RD,ALTUS,OK,73521,34.6668598,-99.3271968,,,False
167166,1515 S PHILLIPS ST,ALGONA,IA,50511,43.0564649,-94.2255823,,,False
527085,206 COURT ST,CHILTON,WI,53014,44.0296379,-88.1683141,,,False
248030,1919 UNIVERSITY AVE W,SAINT PAUL,MN,55104,44.9572233,-93.1805308,,,False
367433,1225 WOODLAWN AVE,CAMBRIDGE,OH,43725,40.011197,-81.5817993,,,False
077134,231 FARMINGTON AVE,FARMINGTON,CT,06032,41.7370812,-72.7929235,41.7370812,-72.7929235,True
059259,12598 CENTRAL AVE,CHINO,CA,91710,34.024168,-117.6894915,,,False
297300,400 W 4TH ST,WINNEMUCCA,NV,89445,40.9699737,-117.7377872,,,False
147448,2550 CHARLES ST,ROCKFORD,IL,61108,42.259876,-89.055756,,,False
077015,403 N FRONTAGE RD,WATERFORD,CT,06385,41.3715272,-72.1251917,,,False
747491,10662 VISTA DEL SOL DR,EL PASO,TX,79935,31.7552795,-106.3403604,,,False
109656,3903 NORTHDALE BLVD,TAMPA,FL,33624,28.0947021,-82.5069551,28.0947021,-82.5069551,True
077173,267 FINCH AVENUE,MERIDEN,CT,06451,41.539236,-72.85220249999999,41.539236,-72.85220249999999,True
227535,33 JAMES REYNOLDS RD E,SWANSEA,MA,02777,41.7704868,-71.2644519,41.7704868,-71.2644519,True
368340,2999 E DUBLIN GRANVILLE RD,COLUMBUS,OH,43231,40.08195,-82.937228,,,False
347309,1005 CARTHAGE STREET,SANFORD,NC,27331,35.4725612,-79.1879464,,,False
368424,2242 S HAMILTON RD,COLUMBUS,OH,43232,39.9286598,-82.8777085,,,False
239191,8061 21 MILE RD,SHELBY TOWNSHIP,MI,48317,42.6406853,-83.032067,,,False
147267,20000 GOVERNORS DR,OLYMPIA FIELDS,IL,60461,41.525681,-87.702213,,,False
417035,2809 POST ROAD,WARWICK,RI,02886,41.7081475,-71.451504,,,False
248027,26814 143RD ST,PIERZ,MN,56364,45.969934,-94.0966581,,,False
109561,19501 NE 10TH AVE,NORTH MIAMI BEACH,FL,33179,25.943468,-80.1809576,,,False
527195,801 OAK ST,SPOONER,WI,54801,45.826893,-91.896916,,,False
267184B,12800 CORPORATE HILL DR,SAINT LOUIS,MO,63131,38.6052956,-90.4540209,,,False
108325,600 CORPORATE DR,FORT LAUDERDALE,FL,33334,26.2050413,-80.1378324,,,False
679065,5118 MOULTRIE DR,CORPUS CHRISTI,TX,78413,27.696678,-97.3867514,,,False
477015,54 FARR AVENUE,MORRISVILLE,VT,05661,44.5534126,-72.589496,,,False
368025,4255 CENTER RD,BRUNSWICK,OH,44212,41.2383398,-81.8394046,,,False
367401,1303 BELLEFONTAINE AVE,LIMA,OH,45804,40.7318136,-84.0815386,,,False
227198,415 COLUMBIA ROAD,DORCHESTER,MA,02125,42.3129951,-71.0680378,,,False
227006,500 BELMONT ST,BROCKTON,MA,02301,42.0746585,-71.0397542,,,False
157155,415 S WALNUT ST,SEYMOUR,IN,47274,38.9543191,-85.8903663,,,False
247263,403 MAIN ST,ELK RIVER,MN,55330,45.3029734,-93.5608931,45.3029734,-93.5608931,True
077001,3060 MAIN ST,STRATFORD,CT,06614,41.202133,-73.1306654,,,False
077078,605A ORANGE CENTER ROAD,ORANGE,CT,06477,41.2781744,-73.02508759999999,41.2781744,-73.02508759999999,True
148214,950 SKOKIE BLVD,NORTHBROOK,IL,60062,42.1361051,-87.7905995,,,False
397679,1251 S CEDAR CREST BLVD,ALLENTOWN,PA,18103,40.5863746,-75.523601,,,False
497462,121 MALL DR,DANVILLE,VA,24540,36.5918738,-79.4238095,,,False
059559,12722 RIVERSIDE DR,VALLEY VILLAGE,CA,91607,34.1576227,-118.403306,,,False
237252,1883E MAPLE RD,TROY,MI,48083,42.5495007,-83.1105276,42.5495007,-83.1105276,True
337205,2-8 W MAIN ST,JOHNSTOWN,NY,12095,43.0062835,-74.3764566,,,False
417023,14 WOODRUFF AVE,NARRAGANSETT,RI,02882,41.4309087,-71.4820472,,,False
368220,1840 W HIGH ST,PIQUA,OH,45356,40.1477839,-84.2760644,,,False
407001,114 CALLE ELEONOR ROOSEVELT,SAN JUAN,PR,00918,18.4208539,-66.0582575,18.4208539,-66.0582575,True
397748,3136 HAMILTON BLVD,ALLENTOWN,PA,18103,40.5832987,-75.5223306,,,False
527258,130 W ELM ST,LANCASTER,WI,53813,42.8496649,-90.7103391,42.8496649,-90.7103391,True
367426,320 OXFORD ST,DOVER,OH,44622,40.517864,-81.46811,,,False
527252,38 W 5TH AVE,SHELL LAKE,WI,54871,45.7429663,-91.9242955,,,False
237182,226 S CEDAR ST,MANISTIQUE,MI,49854,45.956155,-86.2466895,,,False
239176,198S MAIN ST 1,MOUNT CLEMENS,MI,48043,42.5905437,-82.88153609999999,42.5905437,-82.88153609999999,True
107272,900 N ROBERT AVE,ARCADIA,FL,34266,27.227471,-81.8510371,27.227471,-81.8510371,True
337009,1 FORDHAM PLZ,BRONX,NY,10458,40.8606414,-73.8901258,,,False
017323,2016 S ALABAMA AVE,MONROEVILLE,AL,36460,31.497939,-87.320653,,,False
148310,415 W GOLF RD,ARLINGTON HEIGHTS,IL,60005,42.0515517,-87.9863368,,,False
197210,4404 OLD STERLINGTON RD,MONROE,LA,71203,32.5780563,-92.0684453,,,False
677672,1101 W VICKERY BLVD,FORT WORTH,TX,76104,32.743589,-97.336197,,,False
337212,138 CECIL MALONE DRIVE,ITHACA,NY,14850,42.4356104,-76.5084349,,,False
267216,990 PARK DR,STE GENEVIEVE,MO,63670,37.9707609,-90.0525203,,,False
367087,2201 25TH ST,PORTSMOUTH,OH,45662,38.7519675,-82.9725412,,,False
367744,8320 BEECHMONT AVE,CINCINNATI,OH,45255,39.087897,-84.381712,,,False
057002,5 LOWER RAGSDALE DR,MONTEREY,CA,93940,36.5766454,-121.8158987,,,False
247110,2525 CHICAGO AVE,MINNEAPOLIS,MN,55404,44.9562455,-93.2619674,,,False
367608,2373 HARRISON AVE,CINCINNATI,OH,45211,39.1376088,-84.579682,,,False
747522,2410 LUNA RD,CARROLLTON,TX,75006,32.9222823,-96.9254469,,,False
077248,1340 WORTHINGTON RDG,BERLIN,CT,06037,41.6070553,-72.7507972,,,False
247040,4000 LONDON RD,DULUTH,MN,55804,46.822147,-92.042107,,,False
147065,606 W ADAMS ST,PITTSFIELD,IL,62363,39.607878,-90.814391,,,False
227532,687 HIGHLAND AVENUE,NEEDHAM,MA,02494,42.2988073,-71.2324545,,,False
317008,15 ESSEX RD 301,PARAMUS,NJ,07652,40.9313216,-74.0784127,40.9313216,-74.0784127,True
307049,608 CHESTNUT STREET,MANCHESTER,NH,03105,42.9993469,-71.4621255,,,False
109621,28805 US HIGHWAY 19 N,CLEARWATER,FL,33761,28.0145368,-82.7366422,,,False
387000,415N FAIRVIEW AVE,BURNS,OR,97720,43.5824509,-119.0607775,,,False
458261,1409 S BECKHAM AVE,TYLER,TX,75701,32.3330747,-95.2909169,,,False
059437,3786 LA CRESCENTA AVE,GLENDALE,CA,91208,34.210886,-118.239886,,,False
437008,172 4TH ST SE,HURON,SD,57350,44.3623037,-98.2103609,,,False
077247,4200 PARK AVE,BRIDGEPORT,CT,06604,41.213023,-73.2307831,41.213023,-73.2307831,True
337019,35 COLVIN AVE,ALBANY,NY,12206,42.6784288,-73.7953801,,,False
247215,3201 PINE RIDGE AVE NW,BEMIDJI,MN,56601,47.5005027,-94.9013554,,,False
297182,5450 W SAHARA AVE,LAS VEGAS,NV,89146,36.1445558,-115.2156659,,,False
747568,4313 N. 10TH STREET,MCALLEN,TX,78504,26.2415631,-98.2236331,,,False
148210,5225 OLD ORCHARD RD,SKOKIE,IL,60077,42.0624464,-87.7571041,,,False
557008,363 ACADEMY ST,BISHOP,CA,93514,37.3633966,-118.3978513,37.3633966,-118.3978513,True
148230,4131 W BELMONT AVE,CHICAGO,IL,60641,41.9389625,-87.7309122,,,False
107651,550 SW 3RD STREET,POMPANO BEACH,FL,33060,26.2267705,-80.1340295,,,False
437055,1031 W 2ND ST,REDFIELD,SD,57469,44.8708807,-98.521926,,,False
057248,1630 E SHAW AVE,FRESNO,CA,93710,36.8086815,-119.757919,,,False
537038,1401 W 5TH ST,SHERIDAN,WY,82801,44.8085645,-106.976096,,,False
057609,1544 MARKET ST,REDDING,CA,96001,40.583865,-122.3907422,,,False
157145,101 W 61ST AVE,HOBART,IN,46342,41.509174,-87.2602728,,,False
059321,2488 TAPO ST,SIMI VALLEY,CA,93063,34.2804248,-118.7088409,,,False
337052,1050 W GENESEE ST,SYRACUSE,NY,13204,43.0540415,-76.172409,,,False
367662,13815 KINSMAN AVE,CLEVELAND,OH,44120,41.4648179,-81.586376,41.4648179,-81.586376,True
108126,10242 NW 47TH ST,SUNRISE,FL,33351,26.1833548,-80.2860978,,,False
127003,1520 LOWER MAIN ST,WAILUKU,HI,96793,20.8939603,-156.4941341,,,False
337148,972 BRUSH HOLLOW RD,WESTBURY,NY,11590,40.7730211,-73.5613934,,,False
227533,369 MAIN ST,SPENCER,MA,01562,42.2544154,-71.9683402,,,False
157141,2670 MICHIGAN RD,MADISON,IN,47250,38.7759924,-85.3872259,,,False
747550,1900 S COULTER ST,AMARILLO,TX,79106,35.191153,-101.920447,,,False
248124,3900 NORTHWOODS DR,ARDEN HILLS,MN,55112,45.057578,-93.15034,,,False
237187,1125 W RIDGE ST,MARQUETTE,MI,49855,46.547795,-87.418302,,,False
137120,3242 S WOODRUFF AVE,IDAHO FALLS,ID,83404,43.4687715,-112.0041942,,,False
057276,2298 PIKE CT,CONCORD,CA,94520,38.010842,-122.033876,,,False
187062,1301 N RACE ST,GLASGOW,KY,42141,37.0114754,-85.9050462,,,False
057503,2095 W VISTA WAY,VISTA,CA,92083,33.184994,-117.287537,,,False
117125,1550 TIMOTHY RD,ATHENS,GA,30606,33.9346089,-83.4365161,,,False
747581,9015 MOUNTAIN RIDGE DR,AUSTIN,TX,78759,30.3874005,-97.7529489,,,False
059412,10501 S WESTERN AVE,LOS ANGELES,CA,90047,33.940804,-118.309116,,,False
227215,125 COUNTY ST,TAUNTON,MA,02780,41.8960599,-71.0779924,,,False
237528,25572 SCHOENHERR RD,WARREN,MI,48089,42.4820805,-82.9867702,,,False
059520,2420 W CARSON ST,TORRANCE,CA,90501,33.8312378,-118.3269927,,,False
239250,39393 VAN DYKE AVE,STERLING HEIGHTS,MI,48313,42.5831698,-83.0308915,,,False
368026,5945 WILCOX PLACE,DUBLIN,OH,43016,40.0939116,-83.1519671,,,False
447476,304 WRIGHT ST,SWEETWATER,TN,37874,35.6009998,-84.4644668,,,False
227524,1 UNION ST,LAWRENCE,MA,01840,42.706184,-71.153288,,,False
157243,3400 E COLISEUM BLVD,FORT WAYNE,IN,46805,41.1063913,-85.0929174,,,False
059370,6930 OWENSMOUTH AVE,CANOGA PARK,CA,91303,34.196173,-118.6014525,,,False
109701,7700 CONGRESS AVE,BOCA RATON,FL,33487,26.4172735,-80.0953701,,,False
747398,2200 S FM 51,DECATUR,TX,76234,33.215339,-97.597579,,,False
059202,5767 UPLANDER WAY,CULVER CITY,CA,90230,33.9856936,-118.3851005,,,False
747628,105 COMMERCE ST,ALICE,TX,78332,27.7522487,-98.0697249,27.7522487,-98.0697249,True
297192,2801 S VALLEY VIEW BLVD,LAS VEGAS,NV,89102,36.1444215,-115.1907555,,,False
747507,1919 S SHILOH RD,GARLAND,TX,75042,32.8963754,-96.6657784,,,False
239226,3226 FASHION SQUARE BLVD,SAGINAW,MI,48603,43.455306,-83.9710009,,,False
457668,402 E MAIN ST,GATESVILLE,TX,76528,31.4346486,-97.7204244,,,False
247103,1010 S BIRCH AVE,HALLOCK,MN,56728,48.7671797,-96.9399852,,,False
137016,1501 HILAND AVE,BURLEY,ID,83318,42.5346026,-113.7814435,,,False
057163,2029 VILLAGE LN,SOLVANG,CA,93463,34.6009402,-120.1272566,,,False
237462,8201 PORT AUSTIN RD,PIGEON,MI,48755,43.9035667,-83.32138580000002,43.9035667,-83.32138580000002,True
059254,2140 W OLYMPIC BLVD,LOS ANGELES,CA,90006,34.0368622,-118.4439181,,,False
747542,5541 BEAR LN,CORPUS CHRISTI,TX,78405,27.7640983,-97.465721,,,False
187049,CLAY COUNTY HOME HEALTH,MANCHESTER,KY,40962,37.1537007,-83.7618641,37.1537007,-83.7618641,True
059458,2211 S HACIENDA BLVD,HACIENDA HEIGHTS,CA,91745,33.994544,-117.9687664,,,False
197168,101 ASHLAND WAY,MADISONVILLE,LA,70447,30.466428,-90.1836587,30.466428,-90.1836587,True
747606,7322 SOUTHWEST FWY,HOUSTON,TX,77074,29.7039887,-95.5141849,,,False
109697,4010 S 57TH AVE,GREENACRES,FL,33463,26.6142483,-80.1355713,,,False
747719,19207 SUMMER ISLAND WAY,RICHMOND,TX,77407,29.682174,-95.7193286,29.682174,-95.7193286,True
148241,8205 CASS AVE,DARIEN,IL,60561,41.7386236,-87.9735488,,,False
059450,2955E HILLCREST DR 123,THOUSAND OAKS,CA,91362,34.1734698,-118.8344337,34.1734698,-118.8344337,True
747534,1119 RIVER DELTA LN,ROSENBERG,TX,77469,29.5348678,-95.7378254,,,False
108138,3125 W COMMERCIAL BLVD,FT. LAUDERDALE,FL,33309,26.1881464,-80.1688899,,,False
677142,113 W CLEVELAND AVE,ELECTRA,TX,76360,34.0299957,-98.9187637,,,False
497026C,2603 NINE MILE RD,RICHMOND,VA,23223,37.5406268,-77.4085123,,,False
677127,1907 HWY 97 EAST,JOURDANTON,TX,78026,28.9777556,-98.4693171,28.9777556,-98.4693171,True
059361,2834 N NAOMI ST,BURBANK,CA,91504,34.2034454,-118.3398646,,,False
368459,3515 SPRINGDALE ROAD,CINCINNATI,OH,45251,39.2500596,-84.593904,39.2500596,-84.593904,True
017124,311 JAMES ST,OZARK,AL,36360,31.4522801,-85.6341028,,,False
059464,7888 MISSION GROVE PKWY S,RIVERSIDE,CA,92508,33.9102636,-117.3236157,,,False
148246,16820 OAK PARK AVE,TINLEY PARK,IL,60477,41.5855599,-87.7847866,,,False
239224,4245 S BEECH DALY ST,DEARBORN HEIGHTS,MI,48125,42.278346,-83.2897509,,,False
367424,4510 RICHMOND RD,WARRENSVILLE HEIGHTS,OH,44128,41.4355625,-81.4977426,,,False
197786,3300 W ESPLANADE AVE S,METAIRIE,LA,70002,30.0137963,-90.156784,,,False
747604,10711 BURNET RD,AUSTIN,TX,78758,30.3914697,-97.7215599,,,False
747617,1919 SOUTH SHILOH ROAD,GARLAND,TX,75042,32.8963754,-96.6657784,,,False
398169,35 WOODLAND AVE,MORTON,PA,19070,39.9088364,-75.3280788,,,False
147661,701 W TEMPLE AVE,EFFINGHAM,IL,62401,39.127342,-88.55056,,,False
237239,901 N LINCOLN RD,ESCANABA,MI,49829,45.7563309,-87.0785941,,,False
457550,1613 AMARILLO ST,WELLINGTON,TX,79095,34.8472188,-100.2152839,,,False
239259,28051 DEQUINDRE RD,MADISON HEIGHTS,MI,48071,42.4983558,-83.0852546,,,False
747621,13419 US HIGHWAY 290 E,MANOR,TX,78653,30.349566,-97.5140745,,,False
067191,120 N BOULEVARD ST,GUNNISON,CO,81230,38.5447106,-106.9332637,,,False
747611,25700 I-45 NORTH,SPRING,TX,77386,30.1358514,-95.4427616,30.1358514,-95.4427616,True
047104,2729 S HIGHWAY 65 & 82,LAKE VILLAGE,AR,71653,33.3025202,-91.2821187,33.3025202,-91.2821187,True
247213,"1110 HIGHWAY 75 NORTH, SUITE A",BRECKENRIDGE,MN,56520,46.2759241,-96.5860115,46.2759241,-96.5860115,True
217085,1799 HOWELL ROAD,HAGERSTOWN,MD,21740,39.6227489,-77.6987145,,,False
059356,2251 SAN DIEGO AVE,SAN DIEGO,CA,92110,32.7484027,-117.1921585,,,False
337234,2700 N FOREST RD,GETZVILLE,NY,14068,43.0154573,-78.7860785,,,False
458006,600 N MAIN ST,SEYMOUR,TX,76380,33.593329,-99.260205,,,False
747703,901 CLINIC DR,EULESS,TX,76039,32.848576,-97.09633,,,False
059324,14724 VENTURA BLVD,SHERMAN OAKS,CA,91403,34.1510468,-118.4543451,,,False
227203,21 FATHER DEVALLES BLVD,FALL RIVER,MA,02723,41.6819278,-71.1316417,,,False
407019,AVE. DE DIEGO 580,SAN JUAN,PR,00920,18.4067306,-66.0885694,18.4067306,-66.0885694,True
467239,174 S 1100 E,AMERICAN FORK,UT,84003,40.3917,-111.7691466,,,False
447499,311  EAST WOOD STREET,PARIS,TN,38242,36.3019416,-88.3225364,,,False
368417,1350 W. 5TH AVENUE,COLUMBUS,OH,43212,39.9887641,-83.0423224,,,False
057021,17682 MITCHELL N,IRVINE,CA,92614,33.6928816,-117.8588563,,,False
377035A,601 NW 11TH ST,OKLAHOMA CITY,OK,73103,35.480085,-97.522795,,,False
368401,950 TAYLOR STATION,GAHANNA,OH,43230,39.9920389,-82.8401644,,,False
747647,7100 WESTWIND DR,EL PASO,TX,79912,31.85616,-106.542431,,,False
059467,16446 WOODRUFF AVE B,BELLFLOWER,CA,90706,33.8838893,-118.1170685,33.8838893,-118.1170685,True
148298,10001 W ROOSEVELT RD,WESTCHESTER,IL,60154,41.8631963,-87.8731616,41.8631963,-87.8731616,True
368425,4889 SINCLAIR RD,COLUMBUS,OH,43229,40.0657405,-82.9986056,,,False
368410,6555 BUSCH BLVD,COLUMBUS,OH,43229,40.098534,-82.9935658,,,False
227538,160 MERRIMACK ST,METHUEN,MA,01844,42.7334079,-71.1359931,,,False
239221,27601 SCHOOLCRAFT RD,LIVONIA,MI,48150,42.3835567,-83.3169537,,,False
037410,11830 N 19TH AVE,PHOENIX,AZ,85029,33.594384,-112.1007055,,,False
239225,21999 FARMINGTON RD 200,FARMINGTON,MI,48336,42.4675225,-83.3731956,,,False
059405,21707 HAWTHORNE BLVD,TORRANCE,CA,90503,33.8306343,-118.3527909,,,False
239215,32985 HAMILTON CT,FARMINGTON HILLS,MI,48334,42.4968954,-83.3740988,,,False
147009,106 19TH AVE,MOLINE,IL,61265,41.4930701,-90.5371402,,,False
368376,2547 W BROAD ST,COLUMBUS,OH,43204,39.955126,-83.06853,,,False
557407,2600 FOOTHILL BLVD,LA CRESCENTA,CA,91214,34.221152,-118.235286,,,False
677893,1335 SHANNON RD E,SULPHUR SPRINGS,TX,75482,33.1395785,-95.5693321,,,False
239190,28301 5 MILE RD,LIVONIA,MI,48154,42.3982988,-83.3236394,,,False
747782,1925 E BELT LINE RD,CARROLLTON,TX,75006,32.9542616,-96.8873786,,,False
087026,100 S MAIN ST,SMYRNA,DE,19977,39.2999369,-75.6044094,,,False
067402,1160 LAKE PLAZA DR,COLORADO SPRINGS,CO,80906,38.7940241,-104.8073841,,,False
447142,900 E HILL AVE,KNOXVILLE,TN,37915,35.9683477,-83.906912,,,False
059330,14126 SHERMAN WAY,VAN NUYS,CA,91405,34.201114,-118.440762,,,False
059413,46723 FREMONT BLVD,FREMONT,CA,94538,37.4808922,-121.9452616,,,False
037298,2692S AVENUE B 2,YUMA,AZ,85364,32.6786208,-114.6508977,32.6786208,-114.6508977,True
747729,8330 LBJ FREEWAY,DALLAS,TX,75243,32.9254889,-96.8115084,,,False
239258,2565 S ROCHESTER RD,ROCHESTER HILLS,MI,48307,42.6423322,-83.1319213,,,False
227550,20 LINDEN ST,ALLSTON,MA,02134,42.355491,-71.1307276,,,False
157635,650 E CARMEL DR,CARMEL,IN,46032,39.9621225,-86.1157121,,,False
059365,15335 MORRISON ST,SHERMAN OAKS,CA,91403,34.1603547,-118.4668722,,,False
059406,14328 VICTORY BLVD,VAN NUYS,CA,91401,34.1865807,-118.4450363,,,False
678174,5206 WIND RIVER RD,AUSTIN,TX,78759,30.413322,-97.7433045,,,False
368442,1150 MORSE RD,COLUMBUS,OH,43229,40.0619463,-82.9882273,,,False
148286,415 AIRPORT RD,ELGIN,IL,60123,42.0709492,-88.2895942,,,False
227534,290 ROUTE 130,FORESTDALE,MA,02644,41.7142305,-70.4889663,,,False
227547,28 S MAIN ST,SHARON,MA,02067,42.1226578,-71.1793251,,,False
747803,3235 N MESQUITE DR,MESQUITE,TX,75150,32.8054416,-96.6287358,,,False
507095,9105 NE HIGHWAY 99,VANCOUVER,WA,98665,45.6645056,-122.6646869,,,False
297191,2821 W HORIZON RIDGE PKWY,HENDERSON,NV,89052,35.9987221,-115.1107676,,,False
747762,1216 W VETERANS BLVD,PALMVIEW,TX,78572,26.2385109,-98.3840589,26.2385109,-98.3840589,True
059354,750 ALFRED NOBEL DR,HERCULES,CA,94547,38.021473,-122.2762545,,,False
227556,59 LOWES WAY,LOWELL,MA,01851,42.617644,-71.3218045,,,False
267626,219 CLARKSON EXECUTIVE PARK,ELLISVILLE,MO,63011,38.6006301,-90.5865731,,,False
227548,73 CEDAR ST,ROXBURY,MA,02119,42.3262748,-71.0917255,,,False
387087,585 5TH ST,BROOKINGS,OR,97415,42.0567917,-124.2878754,,,False
677545,906 NORTH ST,NACOGDOCHES,TX,75961,31.6110376,-94.6534309,,,False
747695,17330 PRESTON RD,DALLAS,TX,75252,32.9875923,-96.8016928,,,False
467326,290 W CENTER ST,SPANISH FORK,UT,84660,40.1099154,-111.6595958,,,False
297194,720 W CHEYENNE AVE,NORTH LAS VEGAS,NV,89030,36.2179212,-115.1507671,,,False
059461,85 MORAGA WAY,ORINDA,CA,94563,37.8778278,-122.180181,,,False
497685,118 CREEKSIDE LN,WINCHESTER,VA,22602,39.1407647,-78.1916502,,,False
368455,66 S MILLER RD,FAIRLAWN,OH,44333,41.1256239,-81.6098887,,,False
059385,2450 VENTURE OAKS WAY,SACRAMENTO,CA,95833,38.6080674,-121.5103569,38.6080674,-121.5103569,True
059283,444 IRVING DR,BURBANK,CA,91504,34.2003281,-118.3273239,,,False
457089,630 N. ED CAREY DR.,HARLINGEN,TX,78550,26.1698379,-97.6757103,,,False
527307,1333 COLLEGE AVE A,SOUTH MILWAUKEE,WI,53172,42.9296698,-87.8682147,42.9296698,-87.8682147,True
059598,555 S SUNRISE WAY,PALM SPRINGS,CA,92264,33.814211,-116.528506,,,False
417066,57 KILVERT ST,WARWICK,RI,02886,41.7290986,-71.4400982,,,False
059609,4234 N FREEWAY BLVD,SACRAMENTO,CA,95834,38.6465017,-121.4775618,,,False
368469,4713 W 130TH ST,CLEVELAND,OH,44135,41.4255504,-81.780082,,,False
148331,2500 S HIGHLAND AVE,LOMBARD,IL,60148,41.8401828,-88.011146,,,False
077256,88 RYDERS LN,STRATFORD,CT,06614,41.2428673,-73.10191549999999,41.2428673,-73.10191549999999,True
368485,4568 MAYFIELD RD,SOUTH EUCLID,OH,44121,41.5198231,-81.5147084,,,False
059511,151 KALMUS DR,COSTA MESA,CA,92626,33.6726175,-117.8833426,,,False
187041,740 E LAUREL RD,LONDON,KY,40741,37.1177469,-84.0402032,37.1177469,-84.0402032,True
059666,8837 ELK GROVE BLVD,ELK GROVE,CA,95624,38.409071,-121.374685,,,False
377627,105 SOUTH WALTERS,POTEAU,OK,74953,35.0501718,-94.6208123,,,False
679146,4730 SHAVANO OAK,SAN ANTONIO,TX,78249,29.5902877,-98.5762972,,,False
347233,200 1ST AVE NW,HICKORY,NC,28601,35.7336903,-81.3401348,,,False
109796,14410 S MILITARY TRL,DELRAY BEACH,FL,33484,26.4633008,-80.1216816,26.4633008,-80.1216816,True
367193,2550 CORPORATE EXCHANGE DR,COLUMBUS,OH,43231,40.1023787,-82.9462392,,,False
059636,1101 E BROADWAY,GLENDALE,CA,91205,34.14617,-118.2416278,,,False
059552,869E FOOTHILL BLVD B,UPLAND,CA,91786,34.1083009,-117.6393662,34.1083009,-117.6393662,True
109786,6811 PALISADES PARK CT,FORT MYERS,FL,33912,26.5412202,-81.84254399999999,26.5412202,-81.84254399999999,True
157177,115 US HIGHWAY 66 E,TELL CITY,IN,47586,37.9360559,-86.7567444,,,False
677427,1020 S 4TH ST,CANADIAN,TX,79014,35.9036491,-100.38817,,,False
187052,509 MEMORIAL DR,MANCHESTER,KY,40962,37.1598242,-83.7613928,,,False
107155,"9909 US HWY 441, UNIT 2, STE A",LEESBURG,FL,34788,28.82558989999999,-81.79236039999999,28.82558989999999,-81.79236039999999,True
227554,1145 MAIN STREET,SPRINGFIELD,MA,01103,42.100767,-72.58569709999999,42.100767,-72.58569709999999,True
398179,6 GARDEN CENTER DR,GREENSBURG,PA,15601,40.3262007,-79.5457256,,,False
059558,23601 AVALON BLVD,CARSON,CA,90745,33.8110256,-118.2638322,,,False
227162,237 MILLBURY ST,WORCESTER,MA,01610,42.2495115,-71.8006157,,,False
057205,1425 VISTA WAY,RED BLUFF,CA,96080,40.1537878,-122.24683,,,False
187054,630 JAMES TRIMBLE BLVD,PAINTSVILLE,KY,41240,37.8149486,-82.8135251,,,False
557006,10850 WHITE ROCK RD,RANCHO CORDOVA,CA,95670,38.5878127,-121.2838739,,,False
369005,3314 MORSE RD,COLUMBUS,OH,43231,40.0583835,-82.9302413,,,False
459429,3300 S BROADWAY AVE,TYLER,TX,75701,32.313519,-95.300547,,,False
747818,4965 PRESTON PARK BLVD,PLANO,TX,75093,33.0231032,-96.7937728,,,False
147586,200 LAIRD LN,WATSEKA,IL,60970,40.7780879,-87.7058476,40.7780879,-87.7058476,True
257089,912 SUMRALL RD,COLUMBIA,MS,39429,31.2536915,-89.8080093,,,False
457491,45 NE LOOP 410,SAN ANTONIO,TX,78216,29.5211873,-98.4897092,,,False
677515,3201 CHERRY RIDGE ST,SAN ANTONIO,TX,78230,29.50920259999999,-98.5472452,29.50920259999999,-98.5472452,True
077088,100 SAW MILL RD,DANBURY,CT,06810,41.3891808,-73.5402104,,,False
679078,11720 N INTERSTATE 35,AUSTIN,TX,78753,30.383566,-97.674404,,,False
197498,3715 WILLIAMS BLVD,KENNER,LA,70065,30.0240807,-90.2394311,,,False
059490,17111 BEACH BLVD 210,HUNTINGTON BEACH,CA,92647,33.713943,-117.989607,33.713943,-117.989607,True
458452,107 W HOYT DR,LONGVIEW,TX,75601,32.5220675,-94.7423415,,,False
227549,2 CABOT PL 1R,STOUGHTON,MA,02072,42.1537678,-71.0751193,42.1537678,-71.0751193,True
187045,300 SOUTH MAIN CROSS,FLEMINGSBURG,KY,41041,38.420619,-83.735502,,,False
459478,3214E YANDELL DR,EL PASO,TX,79903,31.781455,-106.4561731,31.781455,-106.4561731,True
108010,1852 SW BARNETT WAY,LAKE CITY,FL,32025,30.164072,-82.6433963,,,False
107617,8700 WEST FLAGLER STREET,MIAMI,FL,33174,25.7686521,-80.3370874,,,False
247288,4920 MOUNDVIEW DR,RED WING,MN,55066,44.5691707,-92.6371485,,,False
347307,119 W WADE STREET,WADESBORO,NC,28170,34.9662354,-80.0771713,,,False
317022,155 N DEAN ST,ENGLEWOOD,NJ,07631,40.8983887,-73.9715481,,,False
107770,2711 SW 137TH AVENUE,MIAMI,FL,33175,25.742333,-80.4154151,,,False
368030,4343 BRIDGETOWN RD,CINCINNATI,OH,45211,39.1576638,-84.6227191,39.1576638,-84.6227191,True
337014,505 MAIN ST,NORTHPORT,NY,11768,40.9009791,-73.3355969,,,False
059392,2125 OAK GROVE RD,WALNUT CREEK,CA,94598,37.930448,-122.018186,,,False
367547,83 N. MILLER ROAD,FAIRLAWN,OH,44333,41.1322919,-81.6095598,,,False
107117,760 PONCE DE LEON BLVD,CORAL GABLES,FL,33134,25.7657467,-80.2582689,,,False
147693,1263 S HIGHLAND AVE,LOMBARD,IL,60148,41.8582293,-88.0118769,,,False
037436,10752 N 89TH PL,SCOTTSDALE,AZ,85260,33.5847825,-111.8885777,,,False
679342,215 EXECUTIVE WAY 120A,DESOTO,TX,75115,32.6229114,-96.8607559,32.6229114,-96.8607559,True
227541,10 NEW ENGLAND BUSINESS CENTER DR,ANDOVER,MA,01810,42.6929847,-71.2030995,,,False
107691,9245 SW 158TH LN,PALMETTO BAY,FL,33157,25.6229518,-80.3419941,,,False
067501,4718 N ELIZABETH ST,PUEBLO,CO,81008,38.321871,-104.61791,,,False
059455,9360 SANTA ANITA AVE,RANCHO CUCAMONGA,CA,91730,34.0833625,-117.5393315,,,False
367741,5525 SILICA ROAD,AUSTINTOWN,OH,44515,41.1166789,-80.7686344,,,False
227561,960 SOUTH ST,FITCHBURG,MA,01420,42.5573653,-71.7871995,,,False
059560,1730 W CAMERON AVE,WEST COVINA,CA,91790,34.069849,-117.9440286,,,False
148352,111 W WASHINGTON ST,EAST PEORIA,IL,61611,40.666564,-89.5811849,,,False
108032,17100 COLLINS AVE,SUNNY ISLES BEACH,FL,33160,25.9343584,-80.1233389,,,False
107282,20 LAKE WIRE DR,LAKELAND,FL,33815,28.0450612,-81.9608583,,,False
237278,27908 ORCHARD LAKE RD,FARMINGTON HILLS,MI,48334,42.5048365,-83.3590243,,,False
147626,9950 LAWRENCE AVE,SCHILLER PARK,IL,60176,41.9660258,-87.8754611,,,False
453128,3302 BLUERIDGE LN,GARLAND,TX,75042,32.9267031,-96.6794597,32.9267031,-96.6794597,True
678027,942 VISADOR RD,JASPER,TX,75951,30.920347,-93.98709,,,False
147299,8 HUBER ST,PANA,IL,62557,39.379782,-89.085177,,,False
059447,4740 MURPHY CANYON RD,SAN DIEGO,CA,92123,32.8271924,-117.1200069,,,False
327108,10 CALLE MEDICO,SANTA FE,NM,87505,35.6581135,-105.9408949,,,False
037414,65 S SYCAMORE,MESA,AZ,85202,33.4139839,-111.8699066,,,False
227543,425 LAKE AVE N,WORCESTER,MA,01605,42.2940773,-71.7605012,,,False
107644,8700 W FLAGLER ST,MIAMI,FL,33174,25.7686521,-80.3370874,,,False
678137,14046 MAIN STREET,CHESTER,TX,75936,30.9272176,-94.6035805,,,False
377604,100 WOODBRIAR,NOBLE,OK,73068,35.1528036,-97.3982756,,,False
317043,215 ROUTE 31,FLEMINGTON,NJ,08822,40.5363838,-74.8582258,40.5363838,-74.8582258,True
678422,7272 WURZBACH RD,SAN ANTONIO,TX,78240,29.5034689,-98.5841303,,,False
679185,1115 CHIHUAHUA,LAREDO,TX,78040,27.5055761,-99.4852849,,,False
679011,"6850 MANHATTAN BLVD.,",FORT WORTH,TX,76120,32.7745568,-97.2100549,,,False
677014,"105 E HACKBERRY ST, STE B",PEARSALL,TX,78061,28.8970424,-99.084912,28.8970424,-99.084912,True
107142,1610 NW 23RD AVE,GAINESVILLE,FL,32605,29.674166,-82.344838,,,False
397442,600 SOMERSET AVE,WINDBER,PA,15963,40.2431488,-78.8367717,,,False
307015,75 CHESTNUT ST,FRANKLIN,NH,03235,43.4493774,-71.6375374,,,False
047024,1323 HWY 9 NORTH,SALEM,AR,72576,36.391633,-91.802498,36.391633,-91.802498,True
679241,3939 US HIGHWAY 80 E,MESQUITE,TX,75150,32.7937127,-96.6582206,,,False
679144,4004 BELT LINE ROAD,ADDISON,TX,75001,32.9539025,-96.8465188,,,False
059474,334 VIA VERA CRUZ,SAN MARCOS,CA,92078,33.1368001,-117.1894952,,,False
107793,6001 N.W. 153RD STREET,MIAMI LAKES,FL,33014,25.9127546,-80.2995328,25.9127546,-80.2995328,True
427057,2210 ENTERPRISE DR,FLORENCE,SC,29501,34.236019,-79.8048626,,,False
747761,304 TEXAS AVE,EL PASO,TX,79901,31.7594029,-106.4861195,,,False
453134,5312 FREESTONE DR,GRAND PRAIRIE,TX,75052,32.6451804,-97.0323609,,,False
427037,2527 S CASHUA DR,FLORENCE,SC,29501,34.1770658,-79.8099202,,,False
197258,8755 SULLIVAN ROAD,BATON ROUGE,LA,70818,30.5326018,-91.0284281,,,False
108290,4033 TAMPA RD,OLDSMAR,FL,34677,28.0356834,-82.6541741,,,False
368456,306 REICHELDERFER RD,CRIDERSVILLE,OH,45806,40.6520593,-84.1507359,,,False
677513,5842 S. STAPLES,CORPUS CHRISTI,TX,78413,27.6954138,-97.3775688,,,False
368016,4420 COOPER RD,CINCINNATI,OH,45242,39.2377823,-84.3872713,39.2377823,-84.3872713,True
327145,408N AUBURN AVE,FARMINGTON,NM,87401,36.7292358,-108.2105941,,,False
679106,1016 N INDUSTRIAL BLVD,PILOT POINT,TX,76258,33.4048659,-96.9418166,,,False
369001,700 BRYDEN RD,COLUMBUS,OH,43215,39.9607439,-82.9806462,,,False
337210,1740 EASTCHESTER RD,BRONX,NY,10461,40.8480023,-73.8437819,,,False
747858,222 W FILMORE AVE,HARLINGEN,TX,78550,26.1865568,-97.6970069,,,False
347068,107 INDUSTRIAL DRIVE,LOUISBURG,NC,27549,36.1043603,-78.2894989,,,False
507020,201 7TH ST,HOQUIAM,WA,98550,46.978477,-123.884337,,,False
103170,34650 US HIGHWAY 19 N,PALM HARBOR,FL,34684,28.0871322,-82.74023389999999,28.0871322,-82.74023389999999,True
337024,176 US OVAL,PLATTSBURGH,NY,12903,44.6849635,-73.4495354,,,False
367755,5130 PRINCETON GLENDALE RD,LIBERTY TWP,OH,45011,39.4249882,-84.4501294,,,False
148340,450 PRAIRIE AVE,CALUMET CITY,IL,60409,41.62403,-87.5760703,,,False
059606,1307 W 6TH ST,CORONA,CA,92882,33.8779269,-117.5890425,,,False
347002,131 RACINE DR,WILMINGTON,NC,28403,34.242067,-77.8620143,,,False
059507,30 UNION AVE,CAMPBELL,CA,95008,37.286801,-121.935247,,,False
137028,301 DEINHARD LN,MCCALL,ID,83638,44.897807,-116.099514,,,False
747831,2416 THORS HAMMER BLVD,BROWNSVILLE,TX,78526,25.9488254,-97.4831286,25.9488254,-97.4831286,True
059515,13746 VICTORY BLVD,VAN NUYS,CA,91401,34.1866684,-118.4463146,,,False
407005,355 FONT MARTELLO AVENUE,HUMACAO,PR,00791,18.1549858,-65.8354114,18.1549858,-65.8354114,True
337265,1 WARTBURG PLACE,MOUNT VERNON,NY,10552,40.9195845,-73.8139793,,,False
747915,9502 COMPUTER DR 102,SAN ANTONIO,TX,78229,29.5282266,-98.5615988,29.5282266,-98.5615988,True
239265,15223 FARMINGTON RD,LIVONIA,MI,48154,42.3958264,-83.3737343,,,False
059487,28436 CONSTELLATION RD,VALENCIA,CA,91355,34.45414570000001,-118.5764305,34.45414570000001,-118.5764305,True
368486,2234 S HAMILTON RD,COLUMBUS,OH,43232,39.9287963,-82.8792872,,,False
059529,1130W OLIVE AVE B,BURBANK,CA,91506,34.170882,-118.3187827,34.170882,-118.3187827,True
047001,1100 N UNIVERSITY AVE,LITTLE ROCK,AR,72207,34.761169,-92.3410235,,,False
157650,2449 45TH ST,HIGHLAND,IN,46322,41.5376187,-87.4698023,,,False
