CCN,ADDRESS LINE 1,CITY,STATE,ZIP CODE,lat,lon
107444,7029 TAFT ST,HOLLYWOOD,FL,33024,26.0244604,-80.2275386
757366,3171 LOS FELIZ BLVD,LOS ANGELES,CA,90039,34.1240961,-118.26849
757234,421 ARDEN AVE,GLENDALE,CA,91203,34.1585411,-118.2620439
148395,450 PRAIRIE AVE,CALUMET CITY,IL,60409,41.62403,-87.5760703
753183,225 E BROADWAY SUITE B107,GLENDALE,CA,91205,,
148407,855 E GOLF RD,ARLINGTON HEIGHTS,IL,60005,42.0514282,-87.9813282
037824,1525 S HIGLEY RD,GILBERT,AZ,85296,33.3227915,-111.7211018
753152,1202 MONTE VISTA AVE,UPLAND,CA,91786,34.1089199,-117.6982378
687261,6051 VERDE TRL S,BOCA RATON,FL,33433,26.3589257,-80.1421652
748067,1505 PALOMINO CT,CARROLLTON,TX,75007,33.0187401,-96.898705
